{"createAt":"2022-02-22T15:25:45.552Z","length":20,"data":[{"address":"서울특별시 관악구 난곡로 214 5층 (신림동, 금정빌딩)","name":"성모베스트이비인후과의원","subject":"내과","isPcr":false,"isRat":true,"category":"의원","isClinic":false,"tel":"02-863-1175","longitude":"126.9181420","latitude":37.4739107,"isContact":true,"status":"진료중","week":"09:00 ~ 19:00","sat":"09:00 ~ 14:00","sun":"휴무"},{"address":"서울특별시 구로구 도림로 67 (구로동)","name":"이레소아청소년과의원","subject":"내과","isPcr":true,"isRat":true,"category":"의원","isClinic":false,"tel":"02-830-0107","longitude":126.8910281,"latitude":37.4895188,"isContact":false,"status":"정보없음","week":"정보없음","sat":"정보없음","sun":"정보없음"},{"address":"서울특별시 강남구 밤고개로21길 8 (율현동, 세곡프라자 1동 202호)","name":"우리소아청소년과의원","subject":"내과","isPcr":true,"isRat":true,"category":"의원","isClinic":false,"tel":"02-445-1275","longitude":127.1078517,"latitude":37.4735687,"isContact":false,"status":"정보없음","week":"정보없음","sat":"정보없음","sun":"정보없음"},{"address":"서울특별시 강북구 도봉로 190 (미아동, 비전빌딩)","name":"이윤식이비인후과의원","subject":"이비인후과","isPcr":false,"isRat":true,"category":"의원","isClinic":false,"tel":"02-945-2323","longitude":127.0270001,"latitude":37.6258982,"isContact":true,"status":"진료중","week":"09:00 ~ 18:30","sat":"09:00 ~ 14:00","sun":"휴무"},{"address":"서울특별시 서초구 동작대로 118 3층 301호~303호 (방배동, 방배동예다인프라자빌딩)","name":"지에프소아청소년과의원","subject":"내과","isPcr":false,"isRat":true,"category":"의원","isClinic":false,"tel":"02-522-5119","longitude":126.9828023,"latitude":37.4870229,"isContact":false,"status":"진료중","week":"09:00 ~ 18:00","sat":"09:00 ~ 16:00","sun":"10:00 ~ 16:00"},{"address":"서울특별시 강남구 남부순환로 2936 203,204호 (대치동, 윈플러스상가)","name":"코코이비인후과의원","subject":"이비인후과","isPcr":true,"isRat":true,"category":"의원","isClinic":false,"tel":"02-555-9001","longitude":127.0618627,"latitude":37.4933467,"isContact":false,"status":"진료중","week":"09:30 ~ 18:00","sat":"09:30 ~ 13:00","sun":"휴무"},{"address":"서울특별시 강서구 공항대로 164 류마타워 3층 305호 (마곡동)","name":"마곡코엔이비인후과의원","subject":"내과","isPcr":false,"isRat":true,"category":"의원","isClinic":false,"tel":"02-2664-5075","longitude":126.8255148,"latitude":37.5593259,"isContact":false,"status":"진료중","week":"09:00 ~ 19:00","sat":"09:00 ~ 13:00","sun":"휴무"},{"address":"서울특별시 노원구 동일로 1341 3층 1,2호 (상계동, 장우빌딩)","name":"노충희비뇨기과의원","subject":"내과","isPcr":true,"isRat":true,"category":"의원","isClinic":false,"tel":"02-933-6133","longitude":127.0621075,"latitude":37.6483272,"isContact":true,"status":"정보없음","week":"정보없음","sat":"정보없음","sun":"정보없음"},{"address":"서울특별시 구로구 새말로 15 2~9층 (구로동, 삼전솔하임)","name":"의료법인 우리아이들 의료재단 우리아이들병원","subject":"내과","isPcr":true,"isRat":true,"category":"병원","isClinic":true,"tel":"02-858-0100","longitude":126.8824677,"latitude":37.5021356,"isContact":true,"status":"진료중","week":"09:00 ~ 22:00","sat":"09:00 ~ 17:00","sun":"09:00 ~ 17:00"},{"address":"서울특별시 송파구 가락로 277 (방이동)","name":"방이내과의원","subject":"내과","isPcr":false,"isRat":true,"category":"의원","isClinic":false,"tel":"02-423-3541","longitude":127.1195397,"latitude":37.5126353,"isContact":false,"status":"정보없음","week":"정보없음","sat":"정보없음","sun":"정보없음"},{"address":"서울특별시 금천구 금하로 724 (시흥동)","name":"한양내과의원","subject":"내과","isPcr":false,"isRat":true,"category":"의원","isClinic":false,"tel":"02-806-1136","longitude":126.9100495,"latitude":37.4504505,"isContact":false,"status":"정보없음","week":"정보없음","sat":"정보없음","sun":"정보없음"},{"address":"서울특별시 구로구 경인로 319 대림프라자 (개봉동)","name":"이이비인후과의원","subject":"이비인후과","isPcr":false,"isRat":true,"category":"의원","isClinic":false,"tel":"02-2614-0481","longitude":126.8556191,"latitude":37.4976102,"isContact":true,"status":"정보없음","week":"정보없음","sat":"정보없음","sun":"정보없음"},{"address":"서울특별시 중랑구 용마산로 502 4층 (망우동, 영창빌딩)","name":"박철호 내과의원","subject":"내과","isPcr":true,"isRat":true,"category":"의원","isClinic":false,"tel":"02-2208-1977","longitude":127.1004518,"latitude":37.5957658,"isContact":true,"status":"진료중","week":"09:00 ~ 18:00","sat":"09:00 ~ 14:00","sun":"휴무"},{"address":"서울특별시 송파구 올림픽로 435 (신천동, 파크리오B상가 307호)","name":"한사랑의원","subject":"내과","isPcr":true,"isRat":true,"category":"의원","isClinic":false,"tel":"02-423-5334","longitude":127.1086482,"latitude":37.5212331,"isContact":true,"status":"진료중","week":"08:50 ~ 19:00","sat":"08:50 ~ 14:00","sun":"휴무"},{"address":"서울특별시 중랑구 망우로 214 5층 (상봉동, 우도빌딩)","name":"정다운내과의원","subject":"내과","isPcr":false,"isRat":true,"category":"의원","isClinic":false,"tel":"02-2207-8877","longitude":127.0765527,"latitude":37.5937528,"isContact":true,"status":"정보없음","week":"정보없음","sat":"정보없음","sun":"정보없음"},{"address":"서울특별시 중랑구 망우로 473 무궁화빌딩 3층 (망우동)","name":"비타민의원","subject":"내과","isPcr":false,"isRat":true,"category":"의원","isClinic":false,"tel":"02-493-0900","longitude":127.1045709,"latitude":37.6007883,"isContact":false,"status":"진료중","week":"09:00 ~ 19:00","sat":"09:00 ~ 15:00","sun":"휴무"},{"address":"서울특별시 동작구 장승배기로 34 대한카센타 4층 (상도동)","name":"서울김내과의원","subject":"내과","isPcr":false,"isRat":true,"category":"의원","isClinic":false,"tel":"02-813-7582","longitude":126.9415797,"latitude":37.5011562,"isContact":true,"status":"진료중","week":"09:00 ~ 18:00","sat":"09:00 ~ 13:00","sun":"휴무"},{"address":"서울특별시 양천구 신월로 164 405호 (신월동, 승일뷰티타워2)","name":"양천코아이비인후과의원","subject":"소아청소년과","isPcr":false,"isRat":true,"category":"의원","isClinic":false,"tel":"02-2690-7979","longitude":126.8420198,"latitude":37.5177576,"isContact":false,"status":"진료중","week":"09:00 ~ 19:00","sat":"09:00 ~ 15:00","sun":"휴무"},{"address":"서울특별시 양천구 중앙로 262 4층 402, 403호 (신정동)","name":"시원한비뇨기과의원","subject":"비뇨의학과","isPcr":false,"isRat":true,"category":"의원","isClinic":false,"tel":"02-2062-7510","longitude":"126.8534170","latitude":37.5198526,"isContact":false,"status":"정보없음","week":"정보없음","sat":"정보없음","sun":"정보없음"},{"address":"서울특별시 동작구 보라매로 113 4층 (대방동)","name":"하정한정형외과의원","subject":"내과","isPcr":true,"isRat":true,"category":"의원","isClinic":false,"tel":"02-812-2211","longitude":126.9279165,"latitude":37.4994798,"isContact":false,"status":"정보없음","week":"정보없음","sat":"정보없음","sun":"정보없음"}]}