{"createAt":"2022-02-22T02:42:02.920Z","length":4,"data":[{"address":"서울특별시 강북구 도봉로 190 (미아동, 비전빌딩)","name":"이윤식이비인후과의원","isPcr":false,"isRat":true,"category":"의원","isClinic":false,"tel":"02-945-2323","longitude":127.0270001,"latitude":37.6258982,"isContact":true,"status":"진료마감","week":"09:00 ~ 18:30","sat":"09:00 ~ 14:00","sun":"휴무"},{"address":"서울특별시 서초구 동작대로 118 3층 301호~303호 (방배동, 방배동예다인프라자빌딩)","name":"지에프소아청소년과의원","isPcr":false,"isRat":true,"category":"의원","isClinic":false,"tel":"02-522-5119","longitude":126.9828023,"latitude":37.4870229,"isContact":false,"status":"진료마감","week":"09:00 ~ 18:00","sat":"09:00 ~ 16:00","sun":"10:00 ~ 16:00"},{"address":"서울특별시 강서구 공항대로 164 류마타워 3층 305호 (마곡동)","name":"마곡코엔이비인후과의원","isPcr":false,"isRat":true,"category":"의원","isClinic":false,"tel":"02-2664-5075","longitude":126.8255148,"latitude":37.5593259,"isContact":false,"status":"진료마감","week":"09:00 ~ 19:00","sat":"09:00 ~ 13:00","sun":"휴무"},{"address":"서울특별시 구로구 새말로 15 2~9층 (구로동, 삼전솔하임)","name":"의료법인 우리아이들 의료재단 우리아이들병원","isPcr":true,"isRat":true,"category":"병원","isClinic":true,"tel":"02-858-0100","longitude":126.8824677,"latitude":37.5021356,"isContact":true,"status":"진료마감","week":"09:00 ~ 22:00","sat":"09:00 ~ 17:00","sun":"09:00 ~ 17:00"}]}