{
  "createAt": "2022-02-22T16:17:27.771Z",
  "length": 1231,
  "data": [
  {
  "address": "서울특별시 관악구 난곡로 214 5층 (신림동, 금정빌딩)",
  "name": "성모베스트이비인후과의원",
  "subject": "내과",
  "isPcr": false,
  "isRat": true,
  "category": "의원",
  "isClinic": false,
  "tel": "02-863-1175",
  "longitude": "126.9181420",
  "latitude": 37.4739107,
  "isContact": true,
  "status": "진료중",
  "week": "09:00 ~ 19:00",
  "sat": "09:00 ~ 14:00",
  "sun": "휴무"
  },
  {
  "address": "서울특별시 구로구 도림로 67 (구로동)",
  "name": "이레소아청소년과의원",
  "subject": "내과",
  "isPcr": true,
  "isRat": true,
  "category": "의원",
  "isClinic": false,
  "tel": "02-830-0107",
  "longitude": 126.8910281,
  "latitude": 37.4895188,
  "isContact": false,
  "status": "정보없음",
  "week": "정보없음",
  "sat": "정보없음",
  "sun": "정보없음"
  },
  {
  "address": "서울특별시 강남구 밤고개로21길 8 (율현동, 세곡프라자 1동 202호)",
  "name": "우리소아청소년과의원",
  "subject": "내과",
  "isPcr": true,
  "isRat": true,
  "category": "의원",
  "isClinic": false,
  "tel": "02-445-1275",
  "longitude": 127.1078517,
  "latitude": 37.4735687,
  "isContact": false,
  "status": "정보없음",
  "week": "정보없음",
  "sat": "정보없음",
  "sun": "정보없음"
  },
  {
  "address": "서울특별시 강북구 도봉로 190 (미아동, 비전빌딩)",
  "name": "이윤식이비인후과의원",
  "subject": "이비인후과",
  "isPcr": false,
  "isRat": true,
  "category": "의원",
  "isClinic": false,
  "tel": "02-945-2323",
  "longitude": 127.0270001,
  "latitude": 37.6258982,
  "isContact": true,
  "status": "진료중",
  "week": "09:00 ~ 18:30",
  "sat": "09:00 ~ 14:00",
  "sun": "휴무"
  },
  {
  "address": "서울특별시 서초구 동작대로 118 3층 301호~303호 (방배동, 방배동예다인프라자빌딩)",
  "name": "지에프소아청소년과의원",
  "subject": "내과",
  "isPcr": false,
  "isRat": true,
  "category": "의원",
  "isClinic": false,
  "tel": "02-522-5119",
  "longitude": 126.9828023,
  "latitude": 37.4870229,
  "isContact": false,
  "status": "진료중",
  "week": "09:00 ~ 18:00",
  "sat": "09:00 ~ 16:00",
  "sun": "10:00 ~ 16:00"
  },
  {
  "address": "서울특별시 강남구 남부순환로 2936 203,204호 (대치동, 윈플러스상가)",
  "name": "코코이비인후과의원",
  "subject": "이비인후과",
  "isPcr": true,
  "isRat": true,
  "category": "의원",
  "isClinic": false,
  "tel": "02-555-9001",
  "longitude": 127.0618627,
  "latitude": 37.4933467,
  "isContact": false,
  "status": "진료중",
  "week": "09:30 ~ 18:00",
  "sat": "09:30 ~ 13:00",
  "sun": "휴무"
  },
  {
  "address": "서울특별시 강서구 공항대로 164 류마타워 3층 305호 (마곡동)",
  "name": "마곡코엔이비인후과의원",
  "subject": "내과",
  "isPcr": false,
  "isRat": true,
  "category": "의원",
  "isClinic": false,
  "tel": "02-2664-5075",
  "longitude": 126.8255148,
  "latitude": 37.5593259,
  "isContact": false,
  "status": "진료중",
  "week": "09:00 ~ 19:00",
  "sat": "09:00 ~ 13:00",
  "sun": "휴무"
  },
  {
  "address": "서울특별시 노원구 동일로 1341 3층 1,2호 (상계동, 장우빌딩)",
  "name": "노충희비뇨기과의원",
  "subject": "내과",
  "isPcr": true,
  "isRat": true,
  "category": "의원",
  "isClinic": false,
  "tel": "02-933-6133",
  "longitude": 127.0621075,
  "latitude": 37.6483272,
  "isContact": true,
  "status": "정보없음",
  "week": "정보없음",
  "sat": "정보없음",
  "sun": "정보없음"
  },
  {
  "address": "서울특별시 송파구 가락로 277 (방이동)",
  "name": "방이내과의원",
  "subject": "내과",
  "isPcr": false,
  "isRat": true,
  "category": "의원",
  "isClinic": false,
  "tel": "02-423-3541",
  "longitude": 127.1195397,
  "latitude": 37.5126353,
  "isContact": false,
  "status": "정보없음",
  "week": "정보없음",
  "sat": "정보없음",
  "sun": "정보없음"
  },
  {
  "address": "서울특별시 금천구 금하로 724 (시흥동)",
  "name": "한양내과의원",
  "subject": "내과",
  "isPcr": false,
  "isRat": true,
  "category": "의원",
  "isClinic": false,
  "tel": "02-806-1136",
  "longitude": 126.9100495,
  "latitude": 37.4504505,
  "isContact": false,
  "status": "정보없음",
  "week": "정보없음",
  "sat": "정보없음",
  "sun": "정보없음"
  },
  {
  "address": "서울특별시 구로구 경인로 319 대림프라자 (개봉동)",
  "name": "이이비인후과의원",
  "subject": "이비인후과",
  "isPcr": false,
  "isRat": true,
  "category": "의원",
  "isClinic": false,
  "tel": "02-2614-0481",
  "longitude": 126.8556191,
  "latitude": 37.4976102,
  "isContact": true,
  "status": "정보없음",
  "week": "정보없음",
  "sat": "정보없음",
  "sun": "정보없음"
  },
  {
  "address": "서울특별시 중랑구 용마산로 502 4층 (망우동, 영창빌딩)",
  "name": "박철호 내과의원",
  "subject": "내과",
  "isPcr": true,
  "isRat": true,
  "category": "의원",
  "isClinic": false,
  "tel": "02-2208-1977",
  "longitude": 127.1004518,
  "latitude": 37.5957658,
  "isContact": true,
  "status": "진료중",
  "week": "09:00 ~ 18:00",
  "sat": "09:00 ~ 14:00",
  "sun": "휴무"
  },
  {
  "address": "서울특별시 송파구 올림픽로 435 (신천동, 파크리오B상가 307호)",
  "name": "한사랑의원",
  "subject": "내과",
  "isPcr": true,
  "isRat": true,
  "category": "의원",
  "isClinic": false,
  "tel": "02-423-5334",
  "longitude": 127.1086482,
  "latitude": 37.5212331,
  "isContact": true,
  "status": "진료중",
  "week": "08:50 ~ 19:00",
  "sat": "08:50 ~ 14:00",
  "sun": "휴무"
  },
  {
  "address": "서울특별시 중랑구 망우로 214 5층 (상봉동, 우도빌딩)",
  "name": "정다운내과의원",
  "subject": "내과",
  "isPcr": false,
  "isRat": true,
  "category": "의원",
  "isClinic": false,
  "tel": "02-2207-8877",
  "longitude": 127.0765527,
  "latitude": 37.5937528,
  "isContact": true,
  "status": "정보없음",
  "week": "정보없음",
  "sat": "정보없음",
  "sun": "정보없음"
  },
  {
  "address": "서울특별시 중랑구 망우로 473 무궁화빌딩 3층 (망우동)",
  "name": "비타민의원",
  "subject": "내과",
  "isPcr": false,
  "isRat": true,
  "category": "의원",
  "isClinic": false,
  "tel": "02-493-0900",
  "longitude": 127.1045709,
  "latitude": 37.6007883,
  "isContact": false,
  "status": "진료중",
  "week": "09:00 ~ 19:00",
  "sat": "09:00 ~ 15:00",
  "sun": "휴무"
  },
  {
  "address": "서울특별시 동작구 장승배기로 34 대한카센타 4층 (상도동)",
  "name": "서울김내과의원",
  "subject": "내과",
  "isPcr": false,
  "isRat": true,
  "category": "의원",
  "isClinic": false,
  "tel": "02-813-7582",
  "longitude": 126.9415797,
  "latitude": 37.5011562,
  "isContact": true,
  "status": "진료중",
  "week": "09:00 ~ 18:00",
  "sat": "09:00 ~ 13:00",
  "sun": "휴무"
  },
  {
  "address": "서울특별시 양천구 신월로 164 405호 (신월동, 승일뷰티타워2)",
  "name": "양천코아이비인후과의원",
  "subject": "소아청소년과",
  "isPcr": false,
  "isRat": true,
  "category": "의원",
  "isClinic": false,
  "tel": "02-2690-7979",
  "longitude": 126.8420198,
  "latitude": 37.5177576,
  "isContact": false,
  "status": "진료중",
  "week": "09:00 ~ 19:00",
  "sat": "09:00 ~ 15:00",
  "sun": "휴무"
  },
  {
  "address": "서울특별시 양천구 중앙로 262 4층 402, 403호 (신정동)",
  "name": "시원한비뇨기과의원",
  "subject": "비뇨의학과",
  "isPcr": false,
  "isRat": true,
  "category": "의원",
  "isClinic": false,
  "tel": "02-2062-7510",
  "longitude": "126.8534170",
  "latitude": 37.5198526,
  "isContact": false,
  "status": "정보없음",
  "week": "정보없음",
  "sat": "정보없음",
  "sun": "정보없음"
  },
  {
  "address": "서울특별시 동작구 보라매로 113 4층 (대방동)",
  "name": "하정한정형외과의원",
  "subject": "내과",
  "isPcr": true,
  "isRat": true,
  "category": "의원",
  "isClinic": false,
  "tel": "02-812-2211",
  "longitude": 126.9279165,
  "latitude": 37.4994798,
  "isContact": false,
  "status": "정보없음",
  "week": "정보없음",
  "sat": "정보없음",
  "sun": "정보없음"
  },
  {
  "address": "서울특별시 용산구 한남대로 76 한남프라자 5층 (한남동)",
  "name": "홈스피탈내과의원",
  "subject": "내과",
  "isPcr": false,
  "isRat": true,
  "category": "의원",
  "isClinic": false,
  "tel": "02-796-7566",
  "longitude": 127.0065697,
  "latitude": 37.5355717,
  "isContact": false,
  "status": "정보없음",
  "week": "정보없음",
  "sat": "정보없음",
  "sun": "정보없음"
  },
  {
  "address": "서울특별시 용산구 이촌로 224 (이촌동, 한강쇼핑센터 215호일부,214호,213호,218호)",
  "name": "이촌이비인후과의원",
  "subject": "이비인후과",
  "isPcr": false,
  "isRat": true,
  "category": "의원",
  "isClinic": false,
  "tel": "797-6302",
  "longitude": 126.9718784,
  "latitude": 37.5201913,
  "isContact": true,
  "status": "진료중",
  "week": "09:00 ~ 18:30",
  "sat": "09:00 ~ 14:00",
  "sun": "휴무"
  },
  {
  "address": "서울특별시 도봉구 해등로16길 26 (창동, 타임프라자)",
  "name": "정다운가정의학과의원",
  "subject": "내과",
  "isPcr": false,
  "isRat": true,
  "category": "의원",
  "isClinic": false,
  "tel": "997-7545",
  "longitude": 127.0414985,
  "latitude": 37.6556381,
  "isContact": false,
  "status": "정보없음",
  "week": "정보없음",
  "sat": "정보없음",
  "sun": "정보없음"
  },
  {
  "address": "서울특별시 중구 난계로23길 1 4,5층 (황학동)",
  "name": "서울정통의원",
  "subject": "내과",
  "isPcr": false,
  "isRat": true,
  "category": "의원",
  "isClinic": false,
  "tel": "02-2252-0075",
  "longitude": 127.0232218,
  "latitude": 37.5703096,
  "isContact": true,
  "status": "정보없음",
  "week": "정보없음",
  "sat": "정보없음",
  "sun": "정보없음"
  },
  {
  "address": "서울특별시 중랑구 사가정로 395 (면목동)",
  "name": "365mc모인이비인후과의원",
  "subject": "이비인후과",
  "isPcr": false,
  "isRat": true,
  "category": "의원",
  "isClinic": false,
  "tel": "02-491-3605",
  "longitude": 127.0887031,
  "latitude": 37.5808378,
  "isContact": false,
  "status": "진료중",
  "week": "09:30 ~ 18:30",
  "sat": "09:30 ~ 14:00",
  "sun": "휴무"
  },
  {
  "address": "서울특별시 중구 남대문로10길 9 2층 203호 (삼각동, 경기빌딩)",
  "name": "연세웰이비인후과의원",
  "subject": "내과",
  "isPcr": false,
  "isRat": true,
  "category": "의원",
  "isClinic": false,
  "tel": "02-732-5050",
  "longitude": 126.9832338,
  "latitude": 37.5672092,
  "isContact": false,
  "status": "진료중",
  "week": "09:00 ~ 19:00",
  "sat": "휴무",
  "sun": "휴무"
  },
  {
  "address": "서울특별시 중랑구 동일로 887 2층 (묵동, 삼삼메디컬빌딩)",
  "name": "보아스이비인후과먹골의원",
  "subject": "소아청소년과",
  "isPcr": true,
  "isRat": true,
  "category": "의원",
  "isClinic": false,
  "tel": "02-971-1530",
  "longitude": 127.0776477,
  "latitude": 37.6095093,
  "isContact": true,
  "status": "진료중",
  "week": "09:00 ~ 19:00",
  "sat": "09:00 ~ 14:00",
  "sun": "휴무"
  },
  {
  "address": "서울특별시 성동구 상원1길 26 서울숲A타워 214,215호 (성수동1가)",
  "name": "서울숲시원마취통증의학과의원",
  "subject": "내과",
  "isPcr": false,
  "isRat": true,
  "category": "의원",
  "isClinic": false,
  "tel": "02-499-1011",
  "longitude": 127.0484338,
  "latitude": "37.5461220",
  "isContact": false,
  "status": "정보없음",
  "week": "정보없음",
  "sat": "정보없음",
  "sun": "정보없음"
  },
  {
  "address": "서울특별시 성동구 독서당로 223 래미안 옥수 리버젠 상가 2층 212, 213호 (옥수동)",
  "name": "하나이비인후과의원",
  "subject": "내과",
  "isPcr": true,
  "isRat": true,
  "category": "의원",
  "isClinic": false,
  "tel": "02-2298-9930",
  "longitude": 127.0151919,
  "latitude": 37.5442707,
  "isContact": true,
  "status": "정보없음",
  "week": "정보없음",
  "sat": "정보없음",
  "sun": "정보없음"
  },
  {
  "address": "서울특별시 관악구 남부순환로 1533 1,2층 (신림동)",
  "name": "대한결핵협회 부설 복십자의원",
  "subject": "내과",
  "isPcr": true,
  "isRat": true,
  "category": "의원",
  "isClinic": false,
  "tel": "02-793-4891",
  "longitude": 126.9209299,
  "latitude": "37.4833000",
  "isContact": false,
  "status": "정보없음",
  "week": "정보없음",
  "sat": "정보없음",
  "sun": "정보없음"
  },
  {
  "address": "서울특별시 강남구 광평로 196 2층 203호 (수서동, 제이스프라자)",
  "name": "성모봄소아청소년과의원",
  "subject": "내과",
  "isPcr": false,
  "isRat": true,
  "category": "의원",
  "isClinic": false,
  "tel": "02-459-9990",
  "longitude": 127.0942863,
  "latitude": 37.4840004,
  "isContact": false,
  "status": "정보없음",
  "week": "정보없음",
  "sat": "정보없음",
  "sun": "정보없음"
  },
  {
  "address": "서울특별시 강동구 아리수로50길 50 4층 (고덕동, 래미안힐스테이트고덕)",
  "name": "새론이비인후과의원",
  "subject": "이비인후과",
  "isPcr": false,
  "isRat": true,
  "category": "의원",
  "isClinic": false,
  "tel": "02-6952-2091",
  "longitude": 127.1489063,
  "latitude": "37.5591090",
  "isContact": false,
  "status": "진료중",
  "week": "09:00 ~ 19:00",
  "sat": "09:00 ~ 14:00",
  "sun": "휴무"
  },
  {
  "address": "서울특별시 노원구 한글비석로 77 3층 (하계동)",
  "name": "365열린내과의원",
  "subject": "내과",
  "isPcr": false,
  "isRat": true,
  "category": "의원",
  "isClinic": false,
  "tel": "02-976-3658",
  "longitude": 127.0704785,
  "latitude": 37.6375293,
  "isContact": true,
  "status": "진료중",
  "week": "09:00 ~ 22:00",
  "sat": "09:00 ~ 22:00",
  "sun": "09:00 ~ 22:00"
  },
  {
  "address": "서울특별시 마포구 신촌로 170 상가306,307호 (대흥동, 이대역푸르지오시티)",
  "name": "뉴센스의원",
  "subject": "정형외과",
  "isPcr": false,
  "isRat": true,
  "category": "의원",
  "isClinic": false,
  "tel": "3272-8885",
  "longitude": 126.9443515,
  "latitude": 37.5563496,
  "isContact": false,
  "status": "정보없음",
  "week": "정보없음",
  "sat": "정보없음",
  "sun": "정보없음"
  },
  {
  "address": "서울특별시 마포구 마포대로 92 3, 5층 303, 503호 (도화동, 효성해링턴스퀘어)",
  "name": "마포공덕튼튼본정형외과의원",
  "subject": "정형외과",
  "isPcr": true,
  "isRat": true,
  "category": "의원",
  "isClinic": false,
  "tel": "02-2197-1785",
  "longitude": 126.9521969,
  "latitude": 37.5425431,
  "isContact": false,
  "status": "정보없음",
  "week": "정보없음",
  "sat": "정보없음",
  "sun": "정보없음"
  },
  {
  "address": "서울특별시 중구 동호로 163 2,4층 (신당동)",
  "name": "약수내과의원",
  "subject": "내과",
  "isPcr": false,
  "isRat": true,
  "category": "의원",
  "isClinic": false,
  "tel": "02-2234-1675",
  "longitude": 127.0117354,
  "latitude": 37.5529638,
  "isContact": false,
  "status": "정보없음",
  "week": "정보없음",
  "sat": "정보없음",
  "sun": "정보없음"
  },
  {
  "address": "서울특별시 광진구 광나루로 614 (구의동,만택빌딩 3층)",
  "name": "지킴내과의원",
  "subject": "내과",
  "isPcr": true,
  "isRat": true,
  "category": "의원",
  "isClinic": false,
  "tel": "02-2201-2210",
  "longitude": 127.0958444,
  "latitude": 37.5407975,
  "isContact": true,
  "status": "정보없음",
  "week": "정보없음",
  "sat": "정보없음",
  "sun": "정보없음"
  },
  {
  "address": "서울특별시 종로구 세종대로 159 6층 (세종로)",
  "name": "광화문닥터김이비인후과의원",
  "subject": "내과",
  "isPcr": false,
  "isRat": true,
  "category": "의원",
  "isClinic": false,
  "tel": "02-736-5505",
  "longitude": 126.9763604,
  "latitude": 37.5706115,
  "isContact": false,
  "status": "정보없음",
  "week": "정보없음",
  "sat": "정보없음",
  "sun": "정보없음"
  },
  {
  "address": "서울특별시 은평구 서오릉로 217-5 2층 (구산동)",
  "name": "은평연세가정의학과의원",
  "subject": "내과",
  "isPcr": false,
  "isRat": true,
  "category": "의원",
  "isClinic": false,
  "tel": "02-357-6077",
  "longitude": 126.9092213,
  "latitude": "37.6142800",
  "isContact": false,
  "status": "정보없음",
  "week": "정보없음",
  "sat": "정보없음",
  "sun": "정보없음"
  },
  {
  "address": "서울특별시 강북구 솔샘로 233 308호 (미아동, 동북미아프라자)",
  "name": "지안이비인후과의원",
  "subject": "이비인후과",
  "isPcr": false,
  "isRat": true,
  "category": "의원",
  "isClinic": false,
  "tel": "02-983-6830",
  "longitude": 127.0187184,
  "latitude": 37.6201527,
  "isContact": false,
  "status": "정보없음",
  "week": "정보없음",
  "sat": "정보없음",
  "sun": "정보없음"
  },
  {
  "address": "서울특별시 강서구 양천로59길 46 106호 (가양동, 대일빌딩)",
  "name": "연세가족의원",
  "subject": "내과",
  "isPcr": false,
  "isRat": true,
  "category": "의원",
  "isClinic": false,
  "tel": "02-3665-1977",
  "longitude": 126.8600427,
  "latitude": 37.5610449,
  "isContact": true,
  "status": "진료중",
  "week": "08:30 ~ 18:00",
  "sat": "08:30 ~ 13:00",
  "sun": "휴무"
  },
  {
  "address": "서울특별시 마포구 마포대로 68 206~210-1호 (도화동, 마포아크로타워)",
  "name": "코이젠이비인후과의원",
  "subject": "내과",
  "isPcr": true,
  "isRat": true,
  "category": "의원",
  "isClinic": false,
  "tel": "02-2135-8808",
  "longitude": 126.9489375,
  "latitude": 37.5413333,
  "isContact": true,
  "status": "정보없음",
  "week": "정보없음",
  "sat": "정보없음",
  "sun": "정보없음"
  },
  {
  "address": "서울특별시 영등포구 국제금융로 78 304호 (여의도동, 홍우빌딩)",
  "name": "장지은내과의원",
  "subject": "내과",
  "isPcr": false,
  "isRat": true,
  "category": "의원",
  "isClinic": false,
  "tel": "02-761-7100",
  "longitude": 126.9313093,
  "latitude": 37.5208744,
  "isContact": true,
  "status": "정보없음",
  "week": "정보없음",
  "sat": "정보없음",
  "sun": "정보없음"
  },
  {
  "address": "서울특별시 영등포구 경인로 775 에이스하이테크시티 2동 103호 (문래동3가)",
  "name": "연세바른내과의원",
  "subject": "내과",
  "isPcr": false,
  "isRat": true,
  "category": "의원",
  "isClinic": false,
  "tel": "02-2637-7571",
  "longitude": 126.8991421,
  "latitude": 37.5143815,
  "isContact": true,
  "status": "진료중",
  "week": "08:30 ~ 18:00",
  "sat": "08:30 ~ 13:00",
  "sun": "휴무"
  },
  {
  "address": "서울특별시 관악구 관악로 234 2층 (봉천동)",
  "name": "서울김정아소아청소년과의원",
  "subject": "내과",
  "isPcr": false,
  "isRat": true,
  "category": "의원",
  "isClinic": false,
  "tel": "02-872-8276",
  "longitude": 126.9555582,
  "latitude": 37.4843616,
  "isContact": false,
  "status": "정보없음",
  "week": "정보없음",
  "sat": "정보없음",
  "sun": "정보없음"
  },
  {
  "address": "서울특별시 중구 다산로 112 4층 (신당동, 신양빌딩)",
  "name": "성모내과의원",
  "subject": "내과",
  "isPcr": false,
  "isRat": true,
  "category": "의원",
  "isClinic": false,
  "tel": "02-2231-4862",
  "longitude": 127.0103926,
  "latitude": 37.5537859,
  "isContact": true,
  "status": "정보없음",
  "week": "정보없음",
  "sat": "정보없음",
  "sun": "정보없음"
  },
  {
  "address": "서울특별시 은평구 서오릉로 37 (녹번동)",
  "name": "연세노블병원",
  "subject": "내과",
  "isPcr": true,
  "isRat": true,
  "category": "병원",
  "isClinic": false,
  "tel": "02-384-0009",
  "longitude": 126.9244756,
  "latitude": 37.6040714,
  "isContact": true,
  "status": "진료중",
  "week": "09:00 ~ 18:00",
  "sat": "09:00 ~ 13:00",
  "sun": "휴무"
  },
  {
  "address": "서울특별시 노원구 동일로 1548 (상계동)",
  "name": "새하늘이비인후과의원",
  "subject": "내과",
  "isPcr": true,
  "isRat": true,
  "category": "의원",
  "isClinic": false,
  "tel": "02-951-9518",
  "longitude": 127.0576424,
  "latitude": 37.6666795,
  "isContact": true,
  "status": "진료중",
  "week": "09:00 ~ 19:00",
  "sat": "09:00 ~ 16:00",
  "sun": "휴무"
  },
  {
  "address": "서울특별시 구로구 고척로 123-1 2,3층 (개봉동)",
  "name": "메디서울이비인후과의원",
  "subject": "내과",
  "isPcr": true,
  "isRat": true,
  "category": "의원",
  "isClinic": false,
  "tel": "02-2619-3119",
  "longitude": 126.8478161,
  "latitude": 37.5022267,
  "isContact": true,
  "status": "진료중",
  "week": "09:00 ~ 19:00",
  "sat": "09:00 ~ 14:00",
  "sun": "휴무"
  },
  {
  "address": "서울특별시 은평구 연서로 137 2층 (구산동, 영진빌딩)",
  "name": "준이비인후과의원",
  "subject": "이비인후과",
  "isPcr": false,
  "isRat": true,
  "category": "의원",
  "isClinic": false,
  "tel": "02-386-1125",
  "longitude": 126.9168592,
  "latitude": 37.6111701,
  "isContact": false,
  "status": "정보없음",
  "week": "정보없음",
  "sat": "정보없음",
  "sun": "정보없음"
  },
  {
  "address": "서울특별시 중구 퇴계로 61 5층 (남창동, 금오빌딩)",
  "name": "안내과의원",
  "subject": "내과",
  "isPcr": false,
  "isRat": true,
  "category": "의원",
  "isClinic": false,
  "tel": "02-777-6882",
  "longitude": 126.9789281,
  "latitude": 37.5593755,
  "isContact": false,
  "status": "정보없음",
  "week": "정보없음",
  "sat": "정보없음",
  "sun": "정보없음"
  },
  {
  "address": "서울특별시 동작구 노량진로 152 (노량진동)",
  "name": "박이비인후과의원",
  "subject": "이비인후과",
  "isPcr": false,
  "isRat": true,
  "category": "의원",
  "isClinic": false,
  "tel": "02-815-8232",
  "longitude": 126.9427661,
  "latitude": 37.5134495,
  "isContact": true,
  "status": "정보없음",
  "week": "정보없음",
  "sat": "정보없음",
  "sun": "정보없음"
  },
  {
  "address": "서울특별시 강남구 도곡로 449 2층 202호 (대치동)",
  "name": "굿닥터이비인후과의원",
  "subject": "이비인후과",
  "isPcr": false,
  "isRat": true,
  "category": "의원",
  "isClinic": false,
  "tel": "02-553-8840",
  "longitude": 127.0595805,
  "latitude": 37.4988443,
  "isContact": true,
  "status": "정보없음",
  "week": "정보없음",
  "sat": "정보없음",
  "sun": "정보없음"
  },
  {
  "address": "서울특별시 용산구 원효로 171 (원효로2가)",
  "name": "황재훈비뇨기과의원",
  "subject": "피부과",
  "isPcr": false,
  "isRat": true,
  "category": "의원",
  "isClinic": false,
  "tel": "02-703-6300",
  "longitude": 126.9617592,
  "latitude": "37.5356180",
  "isContact": false,
  "status": "정보없음",
  "week": "정보없음",
  "sat": "정보없음",
  "sun": "정보없음"
  },
  {
  "address": "서울특별시 금천구 독산로 136 3층 (시흥동)",
  "name": "명내과의원",
  "subject": "내과",
  "isPcr": false,
  "isRat": true,
  "category": "의원",
  "isClinic": false,
  "tel": "02-891-4280",
  "longitude": 126.9052382,
  "latitude": 37.4595132,
  "isContact": false,
  "status": "정보없음",
  "week": "정보없음",
  "sat": "정보없음",
  "sun": "정보없음"
  },
  {
  "address": "서울특별시 도봉구 도봉로 733 (도봉동)",
  "name": "박의수소아청소년과의원",
  "subject": "내과",
  "isPcr": false,
  "isRat": true,
  "category": "의원",
  "isClinic": false,
  "tel": "02-956-9393",
  "longitude": 127.0433138,
  "latitude": 37.6699163,
  "isContact": true,
  "status": "진료중",
  "week": "09:00 ~ 18:30",
  "sat": "09:00 ~ 14:00",
  "sun": "휴무"
  },
  {
  "address": "서울특별시 강북구 도봉로 253 (수유동, 서울메디칼빌딩)",
  "name": "김영재내과의원",
  "subject": "내과",
  "isPcr": true,
  "isRat": true,
  "category": "의원",
  "isClinic": false,
  "tel": "02-946-0202",
  "longitude": 127.0239935,
  "latitude": 37.6310199,
  "isContact": true,
  "status": "정보없음",
  "week": "정보없음",
  "sat": "정보없음",
  "sun": "정보없음"
  },
  {
  "address": "서울특별시 강남구 봉은사로 205 2층 (논현동)",
  "name": "김성민이비인후과의원",
  "subject": "내과",
  "isPcr": false,
  "isRat": true,
  "category": "의원",
  "isClinic": false,
  "tel": "02-541-5252",
  "longitude": 127.0344772,
  "latitude": 37.5077483,
  "isContact": false,
  "status": "정보없음",
  "week": "정보없음",
  "sat": "정보없음",
  "sun": "정보없음"
  },
  {
  "address": "서울특별시 동대문구 사가정로 148 302~4, 314호 (전농동)",
  "name": "이소아과의원",
  "subject": "소아청소년과",
  "isPcr": false,
  "isRat": true,
  "category": "의원",
  "isClinic": false,
  "tel": "02-2214-0495",
  "longitude": 127.0605491,
  "latitude": 37.5769111,
  "isContact": true,
  "status": "정보없음",
  "week": "정보없음",
  "sat": "정보없음",
  "sun": "정보없음"
  },
  {
  "address": "서울특별시 강남구 봉은사로 331 SH타워 2층 (논현동)",
  "name": "연세봄이비인후과의원",
  "subject": "내과",
  "isPcr": false,
  "isRat": true,
  "category": "의원",
  "isClinic": false,
  "tel": "02-3446-6177",
  "longitude": 127.0429841,
  "latitude": 37.5102889,
  "isContact": false,
  "status": "진료중",
  "week": "09:00 ~ 19:00",
  "sat": "09:00 ~ 14:00",
  "sun": "휴무"
  },
  {
  "address": "서울특별시 은평구 서오릉로 157 201호 (구산동)",
  "name": "서울탑의원",
  "subject": "내과",
  "isPcr": false,
  "isRat": true,
  "category": "의원",
  "isClinic": false,
  "tel": "02-351-9114",
  "longitude": 126.9156356,
  "latitude": 37.6120074,
  "isContact": true,
  "status": "정보없음",
  "week": "정보없음",
  "sat": "정보없음",
  "sun": "정보없음"
  },
  {
  "address": "서울특별시 용산구 만리재로 134 (서계동)",
  "name": "연세이비인후과의원",
  "subject": "내과",
  "isPcr": false,
  "isRat": true,
  "category": "의원",
  "isClinic": false,
  "tel": "02-715-6261",
  "longitude": 126.9625769,
  "latitude": 37.5513395,
  "isContact": false,
  "status": "정보없음",
  "week": "정보없음",
  "sat": "정보없음",
  "sun": "정보없음"
  },
  {
  "address": "서울특별시 강서구 마곡중앙5로 81 402.403호 (마곡동)",
  "name": "연세네오소아청소년과의원",
  "subject": "내과",
  "isPcr": true,
  "isRat": true,
  "category": "의원",
  "isClinic": false,
  "tel": "02-6959-0107",
  "longitude": 126.8187625,
  "latitude": 37.5670966,
  "isContact": false,
  "status": "정보없음",
  "week": "정보없음",
  "sat": "정보없음",
  "sun": "정보없음"
  },
  {
  "address": "서울특별시 양천구 월정로 51 201호 (신월동, 청송프라임)",
  "name": "경창서울이비인후과의원",
  "subject": "내과",
  "isPcr": false,
  "isRat": true,
  "category": "의원",
  "isClinic": false,
  "tel": "02-2691-0633",
  "longitude": 126.8416565,
  "latitude": 37.5242324,
  "isContact": true,
  "status": "정보없음",
  "week": "정보없음",
  "sat": "정보없음",
  "sun": "정보없음"
  },
  {
  "address": "서울특별시 강남구 선릉로155길 3 2,3,4,층 (신사동)",
  "name": "주앤의원",
  "subject": "성형외과",
  "isPcr": false,
  "isRat": true,
  "category": "의원",
  "isClinic": false,
  "tel": "02-518-3458",
  "longitude": 127.0392619,
  "latitude": 37.5251504,
  "isContact": true,
  "status": "진료중",
  "week": "10:00 ~ 21:00",
  "sat": "10:00 ~ 16:00",
  "sun": "00:00 ~ 00:00"
  },
  {
  "address": "서울특별시 마포구 마포대로 204 마포에스케이허브블루 203,204호 (아현동)",
  "name": "공덕아산내과의원",
  "subject": "내과",
  "isPcr": true,
  "isRat": true,
  "category": "의원",
  "isClinic": false,
  "tel": "02-393-7582",
  "longitude": 126.9565447,
  "latitude": 37.5520276,
  "isContact": false,
  "status": "진료중",
  "week": "09:00 ~ 18:00",
  "sat": "09:00 ~ 14:00",
  "sun": "00:00 ~ 00:00"
  },
  {
  "address": "서울특별시 강북구 오패산로30길 30 204,205,206,209,210,211,212호 (미아동, 경남아너스빌)",
  "name": "나눔의원",
  "subject": "내과",
  "isPcr": false,
  "isRat": true,
  "category": "의원",
  "isClinic": false,
  "tel": "986-8575",
  "longitude": 127.0362457,
  "latitude": 37.6159351,
  "isContact": true,
  "status": "진료중",
  "week": "09:00 ~ 18:00",
  "sat": "09:00 ~ 13:00",
  "sun": "휴무"
  },
  {
  "address": "서울특별시 영등포구 여의대방로 83 2~3층 (신길동)",
  "name": "림스내과의원",
  "subject": "내과",
  "isPcr": false,
  "isRat": true,
  "category": "의원",
  "isClinic": false,
  "tel": "02-836-8882",
  "longitude": 126.9158531,
  "latitude": 37.4971218,
  "isContact": true,
  "status": "정보없음",
  "week": "정보없음",
  "sat": "정보없음",
  "sun": "정보없음"
  },
  {
  "address": "서울특별시 강남구 논현로131길 23 지상2층, 3층, 4층, 5층 (논현동)",
  "name": "제일이비인후과의원",
  "subject": "내과",
  "isPcr": false,
  "isRat": true,
  "category": "의원",
  "isClinic": false,
  "tel": "02-517-5085",
  "longitude": 127.0285406,
  "latitude": 37.5139668,
  "isContact": false,
  "status": "정보없음",
  "week": "정보없음",
  "sat": "정보없음",
  "sun": "정보없음"
  },
  {
  "address": "서울특별시 강남구 강남대로84길 8 우인빌딩 2층 (역삼동)",
  "name": "강남박내과의원",
  "subject": "내과",
  "isPcr": false,
  "isRat": true,
  "category": "의원",
  "isClinic": false,
  "tel": "02-6318-8800",
  "longitude": 127.0293382,
  "latitude": "37.4964810",
  "isContact": true,
  "status": "정보없음",
  "week": "정보없음",
  "sat": "정보없음",
  "sun": "정보없음"
  },
  {
  "address": "서울특별시 관악구 난곡로 231 2층 (신림동)",
  "name": "그랜드연합의원",
  "subject": "내과",
  "isPcr": false,
  "isRat": true,
  "category": "의원",
  "isClinic": false,
  "tel": "02-853-8575",
  "longitude": "126.9166330",
  "latitude": 37.4749558,
  "isContact": false,
  "status": "정보없음",
  "week": "정보없음",
  "sat": "정보없음",
  "sun": "정보없음"
  },
  {
  "address": "서울특별시 중구 충무로 42 4층 (초동)",
  "name": "메리힐이비인후과의원",
  "subject": "이비인후과",
  "isPcr": false,
  "isRat": true,
  "category": "의원",
  "isClinic": false,
  "tel": "02-2266-3793",
  "longitude": 126.9930186,
  "latitude": 37.5648636,
  "isContact": false,
  "status": "정보없음",
  "week": "정보없음",
  "sat": "정보없음",
  "sun": "정보없음"
  },
  {
  "address": "서울특별시 송파구 문정로 65 인애가한방병원 지하1층,3층,4층 (문정동)",
  "name": "의료법인일맥의료재단 송파인애가의원",
  "subject": "내과",
  "isPcr": false,
  "isRat": true,
  "category": "의원",
  "isClinic": false,
  "tel": "02-443-7575",
  "longitude": 127.1295085,
  "latitude": 37.4872702,
  "isContact": false,
  "status": "정보없음",
  "week": "정보없음",
  "sat": "정보없음",
  "sun": "정보없음"
  },
  {
  "address": "서울특별시 성북구 보문로 99 2층 (보문동5가, 영광빌딩)",
  "name": "정가정의학과의원",
  "subject": "가정의학과",
  "isPcr": false,
  "isRat": true,
  "category": "의원",
  "isClinic": false,
  "tel": "02-929-9663",
  "longitude": "127.0198420",
  "latitude": 37.5839961,
  "isContact": false,
  "status": "정보없음",
  "week": "정보없음",
  "sat": "정보없음",
  "sun": "정보없음"
  },
  {
  "address": "서울특별시 노원구 동일로 1005 2층 (공릉동, 대정빌딩)",
  "name": "연세이비인후과의원",
  "subject": "이비인후과",
  "isPcr": false,
  "isRat": true,
  "category": "의원",
  "isClinic": false,
  "tel": "02-976-7033",
  "longitude": "127.0745660",
  "latitude": 37.6199363,
  "isContact": true,
  "status": "정보없음",
  "week": "정보없음",
  "sat": "정보없음",
  "sun": "정보없음"
  },
  {
  "address": "서울특별시 서초구 서초중앙로 36 6층 (서초동)",
  "name": "연세봄이비인후과의원",
  "subject": "이비인후과",
  "isPcr": false,
  "isRat": true,
  "category": "의원",
  "isClinic": false,
  "tel": "02-597-1449",
  "longitude": 127.0162228,
  "latitude": 37.4855763,
  "isContact": false,
  "status": "진료중",
  "week": "09:00 ~ 19:00",
  "sat": "09:00 ~ 14:00",
  "sun": "휴무"
  },
  {
  "address": "서울특별시 마포구 굴레방로 17 3층 (아현동)",
  "name": "연세비앤에이의원",
  "subject": "내과",
  "isPcr": true,
  "isRat": true,
  "category": "의원",
  "isClinic": false,
  "tel": "02-392-1575",
  "longitude": 126.9555606,
  "latitude": 37.5556408,
  "isContact": false,
  "status": "정보없음",
  "week": "정보없음",
  "sat": "정보없음",
  "sun": "정보없음"
  },
  {
  "address": "서울특별시 도봉구 시루봉로 290 (도봉동, 1~3층)",
  "name": "바로바로의원",
  "subject": "내과",
  "isPcr": true,
  "isRat": true,
  "category": "의원",
  "isClinic": false,
  "tel": "02-956-8808",
  "longitude": 127.0410757,
  "latitude": 37.6710824,
  "isContact": true,
  "status": "정보없음",
  "week": "정보없음",
  "sat": "정보없음",
  "sun": "정보없음"
  },
  {
  "address": "서울특별시 서초구 신반포로 100 407,408,409호 (반포동, 래미안퍼스티지반포역상가)",
  "name": "이혜진소아청소년과의원",
  "subject": "내과",
  "isPcr": false,
  "isRat": true,
  "category": "의원",
  "isClinic": false,
  "tel": "02-596-0075",
  "longitude": 126.9956936,
  "latitude": "37.5030850",
  "isContact": true,
  "status": "진료중",
  "week": "08:30 ~ 18:00",
  "sat": "09:00 ~ 13:00",
  "sun": "휴무"
  },
  {
  "address": "서울특별시 성북구 아리랑로 89 상가동 205,206,207호 (돈암동, 일신건영휴먼빌아파트)",
  "name": "아리랑가정의원",
  "subject": "내과",
  "isPcr": true,
  "isRat": true,
  "category": "의원",
  "isClinic": false,
  "tel": "02-922-5575",
  "longitude": 127.0127791,
  "latitude": 37.6012892,
  "isContact": true,
  "status": "정보없음",
  "week": "정보없음",
  "sat": "정보없음",
  "sun": "정보없음"
  },
  {
  "address": "서울특별시 강남구 삼성로 233 (대치동, 신사빌딩 2층일부)",
  "name": "한빛가정의학과의원",
  "subject": "내과",
  "isPcr": false,
  "isRat": true,
  "category": "의원",
  "isClinic": false,
  "tel": "02-508-6623",
  "longitude": 127.0609247,
  "latitude": 37.4980642,
  "isContact": true,
  "status": "정보없음",
  "week": "정보없음",
  "sat": "정보없음",
  "sun": "정보없음"
  },
  {
  "address": "서울특별시 강남구 광평로19길 10 205호 (수서동, 까치마을상가)",
  "name": "박소아청소년과의원",
  "subject": "내과",
  "isPcr": false,
  "isRat": true,
  "category": "의원",
  "isClinic": false,
  "tel": "02-226-1223",
  "longitude": 127.0878214,
  "latitude": 37.4849884,
  "isContact": true,
  "status": "정보없음",
  "week": "정보없음",
  "sat": "정보없음",
  "sun": "정보없음"
  },
  {
  "address": "서울특별시 광진구 용마산로 53 (중곡동)",
  "name": "정이비인후과의원",
  "subject": "안과",
  "isPcr": false,
  "isRat": true,
  "category": "의원",
  "isClinic": false,
  "tel": "02-456-4503",
  "longitude": 127.0875882,
  "latitude": 37.5584572,
  "isContact": true,
  "status": "진료마감",
  "week": "09:00 ~ 06:00",
  "sat": "09:00 ~ 13:00",
  "sun": "휴무"
  },
  {
  "address": "서울특별시 강서구 강서로 380 3층 (등촌동, 세민빌딩)",
  "name": "도현의원",
  "subject": "내과",
  "isPcr": false,
  "isRat": true,
  "category": "의원",
  "isClinic": false,
  "tel": "02-2604-7582",
  "longitude": 126.8388752,
  "latitude": "37.5594830",
  "isContact": false,
  "status": "정보없음",
  "week": "정보없음",
  "sat": "정보없음",
  "sun": "정보없음"
  },
  {
  "address": "서울특별시 노원구 동일로 1669 수락프라자 (상계동)",
  "name": "미즈아이프라자산부인과의원",
  "subject": "산부인과",
  "isPcr": false,
  "isRat": true,
  "category": "의원",
  "isClinic": false,
  "tel": "02-931-5224",
  "longitude": 127.0549313,
  "latitude": 37.6774491,
  "isContact": true,
  "status": "정보없음",
  "week": "정보없음",
  "sat": "정보없음",
  "sun": "정보없음"
  },
  {
  "address": "서울특별시 강남구 남부순환로 2927 207,307호 (대치동, 대치클래시아)",
  "name": "연세맑은이비인후과송소아청소년과의원",
  "subject": "소아청소년과",
  "isPcr": false,
  "isRat": true,
  "category": "의원",
  "isClinic": false,
  "tel": "02-566-5525",
  "longitude": 127.0603963,
  "latitude": 37.4935668,
  "isContact": false,
  "week": "정보없음",
  "sat": "휴무",
  "sun": "휴무"
  },
  {
  "address": "서울특별시 송파구 법원로 114 c층 219호 (문정동, 엠스테이트빌딩 )",
  "name": "샘이비인후과의원",
  "subject": "내과",
  "isPcr": false,
  "isRat": true,
  "category": "의원",
  "isClinic": false,
  "tel": "02-2283-1335",
  "longitude": 127.1206993,
  "latitude": 37.4857987,
  "isContact": false,
  "status": "정보없음",
  "week": "정보없음",
  "sat": "정보없음",
  "sun": "정보없음"
  },
  {
  "address": "서울특별시 종로구 종로 33 타워1동 401호 (청진동, 그랑서울)",
  "name": "백민의원",
  "subject": "내과",
  "isPcr": false,
  "isRat": true,
  "category": "의원",
  "isClinic": false,
  "tel": "02-3789-1937",
  "longitude": "126.9814840",
  "latitude": 37.5710023,
  "isContact": false,
  "status": "진료중",
  "week": "09:00 ~ 19:00",
  "sat": "휴무",
  "sun": "휴무"
  },
  {
  "address": "서울특별시 광진구 천호대로 671 파크타운 204호 (구의동)",
  "name": "비타민의원",
  "subject": "내과",
  "isPcr": false,
  "isRat": true,
  "category": "의원",
  "isClinic": false,
  "tel": "02-446-8881",
  "longitude": 127.0905325,
  "latitude": 37.5513392,
  "isContact": true,
  "status": "정보없음",
  "week": "정보없음",
  "sat": "정보없음",
  "sun": "정보없음"
  },
  {
  "address": "서울특별시 중구 을지로 51 내외빌딩 4층 (을지로2가)",
  "name": "삼성드림이비인후과의원",
  "subject": "성형외과",
  "isPcr": false,
  "isRat": true,
  "category": "의원",
  "isClinic": false,
  "tel": "02-736-1365",
  "longitude": 126.9851564,
  "latitude": 37.5698997,
  "isContact": false,
  "status": "정보없음",
  "week": "정보없음",
  "sat": "정보없음",
  "sun": "정보없음"
  },
  {
  "address": "서울특별시 서초구 서초중앙로 227 6층 (반포동, 진일빌딩)",
  "name": "반포서울이비인후과의원",
  "subject": "이비인후과",
  "isPcr": false,
  "isRat": true,
  "category": "의원",
  "isClinic": false,
  "tel": "02-3476-8833",
  "longitude": 127.0114788,
  "latitude": "37.5018980",
  "isContact": false,
  "status": "정보없음",
  "week": "정보없음",
  "sat": "정보없음",
  "sun": "정보없음"
  },
  {
  "address": "서울특별시 관악구 남현길 7 3층 (남현동)",
  "name": "늘푸른소아청소년과의원",
  "subject": "내과",
  "isPcr": false,
  "isRat": true,
  "category": "의원",
  "isClinic": false,
  "tel": "02-3487-7702",
  "longitude": 126.9776837,
  "latitude": 37.4760703,
  "isContact": false,
  "status": "정보없음",
  "week": "정보없음",
  "sat": "정보없음",
  "sun": "정보없음"
  },
  {
  "address": "서울특별시 서초구 동작대로 132 2층 (방배동, 안석빌딩)",
  "name": "두리이비인후과의원",
  "subject": "이비인후과",
  "isPcr": false,
  "isRat": true,
  "category": "의원",
  "isClinic": false,
  "tel": "02-3481-2275",
  "longitude": 126.9827781,
  "latitude": 37.4882676,
  "isContact": true,
  "status": "진료중",
  "week": "09:00 ~ 18:30",
  "sat": "09:00 ~ 14:00",
  "sun": "휴무"
  },
  {
  "address": "서울특별시 서대문구 수색로 100-98 402동 14호 (북가좌동)",
  "name": "손이비인후과의원",
  "subject": "내과",
  "isPcr": false,
  "isRat": true,
  "category": "의원",
  "isClinic": false,
  "tel": "02-306-3535",
  "longitude": 126.9124192,
  "latitude": 37.5728714,
  "isContact": true,
  "status": "정보없음",
  "week": "정보없음",
  "sat": "정보없음",
  "sun": "정보없음"
  },
  {
  "address": "서울특별시 강서구 양천로57길 9-7 2,4,5층 (가양동)",
  "name": "강서큰나무재활의학과의원",
  "subject": "내과",
  "isPcr": true,
  "isRat": true,
  "category": "의원",
  "isClinic": false,
  "tel": "02-3664-1155",
  "longitude": 126.8514389,
  "latitude": 37.5634076,
  "isContact": false,
  "status": "정보없음",
  "week": "정보없음",
  "sat": "정보없음",
  "sun": "정보없음"
  },
  {
  "address": "서울특별시 서초구 고무래로 90-7 406호 (서초동, 서초쇼핑)",
  "name": "서초아가페의원",
  "subject": "내과",
  "isPcr": true,
  "isRat": true,
  "category": "의원",
  "isClinic": false,
  "tel": "02-591-3056",
  "longitude": 127.0174825,
  "latitude": 37.4999342,
  "isContact": true,
  "status": "정보없음",
  "week": "정보없음",
  "sat": "정보없음",
  "sun": "정보없음"
  },
  {
  "address": "서울특별시 중랑구 신내로 50-3 3층 (신내동, 선일빌딩)",
  "name": "신내우리의원",
  "subject": "내과",
  "isPcr": false,
  "isRat": true,
  "category": "의원",
  "isClinic": false,
  "tel": "02-435-2277",
  "longitude": 127.0959839,
  "latitude": 37.6037142,
  "isContact": true,
  "status": "정보없음",
  "week": "정보없음",
  "sat": "정보없음",
  "sun": "정보없음"
  },
  {
  "address": "서울특별시 용산구 이촌로 224 2층 206호 (이촌동, 리버뷰맨션)",
  "name": "우리동네소아청소년과의원",
  "subject": "내과",
  "isPcr": false,
  "isRat": true,
  "category": "의원",
  "isClinic": false,
  "tel": "02-798-0100",
  "longitude": 126.9718784,
  "latitude": 37.5201913,
  "isContact": false,
  "status": "정보없음",
  "week": "정보없음",
  "sat": "정보없음",
  "sun": "정보없음"
  },
  {
  "address": "서울특별시 서대문구 연희로 122 2층 (연희동)",
  "name": "강한내과의원",
  "subject": "내과",
  "isPcr": false,
  "isRat": true,
  "category": "의원",
  "isClinic": false,
  "tel": "02-3143-5777",
  "longitude": 126.9324382,
  "latitude": 37.5684604,
  "isContact": true,
  "status": "진료중",
  "week": "08:30 ~ 18:30",
  "sat": "08:30 ~ 15:30",
  "sun": "휴무"
  },
  {
  "address": "서울특별시 강동구 구천면로 403 지하1,2~5층 (명일동, 명일동메디컬빌딩)",
  "name": "박종수신경외과의원",
  "subject": "내과",
  "isPcr": false,
  "isRat": true,
  "category": "의원",
  "isClinic": false,
  "tel": "02-476-0199",
  "longitude": 127.1433726,
  "latitude": "37.5508930",
  "isContact": false,
  "status": "정보없음",
  "week": "정보없음",
  "sat": "정보없음",
  "sun": "정보없음"
  },
  {
  "address": "서울특별시 송파구 송파대로 562 3층 (신천동, 웰리스타워,삼성웰리스아파트)",
  "name": "하나이비인후과의원",
  "subject": "이비인후과",
  "isPcr": false,
  "isRat": true,
  "category": "의원",
  "isClinic": false,
  "tel": "02-416-5255",
  "longitude": 127.0995242,
  "latitude": 37.5153483,
  "isContact": true,
  "status": "진료중",
  "week": "08:30 ~ 20:00",
  "sat": "09:00 ~ 15:00",
  "sun": "휴무"
  },
  {
  "address": "서울특별시 송파구 백제고분로 381 2층 (송파동, 우성빌딩)",
  "name": "소소아과의원",
  "subject": "내과",
  "isPcr": true,
  "isRat": true,
  "category": "의원",
  "isClinic": false,
  "tel": "02-416-1119",
  "longitude": 127.1079549,
  "latitude": 37.5061191,
  "isContact": true,
  "status": "정보없음",
  "week": "정보없음",
  "sat": "정보없음",
  "sun": "정보없음"
  },
  {
  "address": "서울특별시 성동구 행당로 87 408호 (행당동, 대림리빙프라자)",
  "name": "손내과의원",
  "subject": "내과",
  "isPcr": false,
  "isRat": true,
  "category": "의원",
  "isClinic": false,
  "tel": "02-2298-8275",
  "longitude": 127.0285419,
  "latitude": 37.5573015,
  "isContact": true,
  "status": "정보없음",
  "week": "정보없음",
  "sat": "정보없음",
  "sun": "정보없음"
  },
  {
  "address": "서울특별시 강서구 마곡중앙로 55 문영 퀸즈파크13 3층 304~306호 (마곡동)",
  "name": "강서아이엠유의원",
  "subject": "내과",
  "isPcr": true,
  "isRat": true,
  "category": "의원",
  "isClinic": false,
  "tel": "02-2661-1190",
  "longitude": 126.8262615,
  "latitude": 37.5586164,
  "isContact": true,
  "status": "정보없음",
  "week": "정보없음",
  "sat": "정보없음",
  "sun": "정보없음"
  },
  {
  "address": "서울특별시 관악구 은천로 109 한독빌딩 2층 (봉천동)",
  "name": "현대기쁨의원",
  "subject": "내과",
  "isPcr": false,
  "isRat": true,
  "category": "의원",
  "isClinic": false,
  "tel": "02-3476-8275",
  "longitude": 127.0286066,
  "latitude": 37.4947976,
  "isContact": true,
  "status": "정보없음",
  "week": "정보없음",
  "sat": "정보없음",
  "sun": "정보없음"
  },
  {
  "address": "서울특별시 은평구 진관3로 11 208호, 301호 (진관동, 은평뉴타운 힐데스하임)",
  "name": "365이화웃는세상의원",
  "subject": "내과",
  "isPcr": false,
  "isRat": true,
  "category": "의원",
  "isClinic": false,
  "tel": "02-1600-1527",
  "longitude": 126.9031117,
  "latitude": 37.5696705,
  "isContact": false,
  "status": "정보없음",
  "week": "정보없음",
  "sat": "정보없음",
  "sun": "정보없음"
  },
  {
  "address": "서울특별시 송파구 가락로 99 (석촌동, 석촌프라자 2층)",
  "name": "송파제일정형외과의원",
  "subject": "내과",
  "isPcr": false,
  "isRat": true,
  "category": "의원",
  "isClinic": false,
  "tel": "02-423-1190",
  "longitude": 127.1069747,
  "latitude": 37.5011567,
  "isContact": false,
  "status": "진료중",
  "week": "08:30 ~ 18:00",
  "sat": "08:30 ~ 14:00",
  "sun": "휴무"
  },
  {
  "address": "서울특별시 강남구 광평로51길 49 207호 (수서동, 주공1단지상가 )",
  "name": "수서가정의학과의원",
  "subject": "내과",
  "isPcr": false,
  "isRat": true,
  "category": "의원",
  "isClinic": false,
  "tel": "02-459-6688",
  "longitude": 127.1008768,
  "latitude": 37.4920952,
  "isContact": true,
  "status": "정보없음",
  "week": "정보없음",
  "sat": "정보없음",
  "sun": "정보없음"
  },
  {
  "address": "서울특별시 금천구 벚꽃로 298 221호 (가산동, 대륭포스트타워6차)",
  "name": "다나이비인후과의원",
  "subject": "이비인후과",
  "isPcr": false,
  "isRat": true,
  "category": "의원",
  "isClinic": false,
  "tel": "02-852-0125",
  "longitude": 126.8837813,
  "latitude": 37.4814002,
  "isContact": false,
  "status": "진료중",
  "week": "08:30 ~ 19:30",
  "sat": "휴무",
  "sun": "휴무"
  },
  {
  "address": "서울특별시 강남구 삼성로 38 개포빌딩 3층 303호 (개포동)",
  "name": "성모바른의원",
  "subject": "마취통증의학과",
  "isPcr": false,
  "isRat": true,
  "category": "의원",
  "isClinic": false,
  "tel": "02-3411-8575",
  "longitude": 127.0668591,
  "latitude": 37.4886965,
  "isContact": false,
  "status": "정보없음",
  "week": "정보없음",
  "sat": "정보없음",
  "sun": "정보없음"
  },
  {
  "address": "서울특별시 구로구 디지털로 300 지밸리비즈플라자 B1층 13호 (구로동)",
  "name": "닥터수의원",
  "subject": "내과",
  "isPcr": false,
  "isRat": true,
  "category": "의원",
  "isClinic": false,
  "tel": "02-6344-3975",
  "longitude": 126.8966116,
  "latitude": 37.4850307,
  "isContact": false,
  "status": "정보없음",
  "week": "정보없음",
  "sat": "정보없음",
  "sun": "정보없음"
  },
  {
  "address": "서울특별시 영등포구 영등포로 32 103호 (양평동2가)",
  "name": "양평연세이비인후과의원",
  "subject": "내과",
  "isPcr": false,
  "isRat": true,
  "category": "의원",
  "isClinic": false,
  "tel": "02-2068-6939",
  "longitude": 126.8847949,
  "latitude": 37.5226806,
  "isContact": true,
  "week": "정보없음",
  "sat": "휴무",
  "sun": "휴무"
  },
  {
  "address": "서울특별시 강북구 덕릉로 73 (수유동)",
  "name": "신일병원",
  "subject": "내과",
  "isPcr": true,
  "isRat": true,
  "category": "병원",
  "isClinic": false,
  "tel": "02-903-5121",
  "longitude": 127.0218527,
  "latitude": 37.6348037,
  "isContact": false,
  "status": "진료중",
  "week": "09:00 ~ 18:00",
  "sat": "09:00 ~ 14:00",
  "sun": "휴무"
  },
  {
  "address": "서울특별시 마포구 상암산로1길 73 302호 (상암동, 월드프라자)",
  "name": "수이비인후과의원",
  "subject": "내과",
  "isPcr": true,
  "isRat": true,
  "category": "의원",
  "isClinic": false,
  "tel": "02-373-5075",
  "longitude": 126.8832185,
  "latitude": 37.5801705,
  "isContact": true,
  "week": "정보없음",
  "sat": "휴무",
  "sun": "휴무"
  },
  {
  "address": "서울특별시 관악구 봉천로 616 3층 (봉천동)",
  "name": "형이비인후과의원",
  "subject": "이비인후과",
  "isPcr": false,
  "isRat": true,
  "category": "의원",
  "isClinic": false,
  "tel": "02-873-1101",
  "longitude": 126.9655025,
  "latitude": 37.4754416,
  "isContact": true,
  "status": "정보없음",
  "week": "정보없음",
  "sat": "정보없음",
  "sun": "정보없음"
  },
  {
  "address": "서울특별시 노원구 동일로204가길 34 305호 (중계동, 씨앤미빌딩)",
  "name": "시원한이비인후과의원",
  "subject": "소아청소년과",
  "isPcr": false,
  "isRat": true,
  "category": "의원",
  "isClinic": false,
  "tel": "02-971-3631",
  "longitude": "127.0681600",
  "latitude": 37.6407272,
  "isContact": true,
  "status": "진료중",
  "week": "09:00 ~ 19:00",
  "sat": "09:00 ~ 14:00",
  "sun": "휴무"
  },
  {
  "address": "서울특별시 은평구 은평로 29 2층,3층 (신사동)",
  "name": "박근태내과의원",
  "subject": "내과",
  "isPcr": false,
  "isRat": true,
  "category": "의원",
  "isClinic": false,
  "tel": "02-385-0066",
  "longitude": 126.9110177,
  "latitude": 37.5982761,
  "isContact": true,
  "status": "정보없음",
  "week": "정보없음",
  "sat": "정보없음",
  "sun": "정보없음"
  },
  {
  "address": "서울특별시 성북구 종암로 120 (종암동)",
  "name": "굿모닝플러스외과의원",
  "subject": "내과",
  "isPcr": false,
  "isRat": true,
  "category": "의원",
  "isClinic": false,
  "tel": "02-909-2296",
  "longitude": 127.0344387,
  "latitude": 37.6010215,
  "isContact": false,
  "status": "정보없음",
  "week": "정보없음",
  "sat": "정보없음",
  "sun": "정보없음"
  },
  {
  "address": "서울특별시 은평구 은평터널로 196 2층 (신사동)",
  "name": "튼튼소아과의원",
  "subject": "내과",
  "isPcr": false,
  "isRat": true,
  "category": "의원",
  "isClinic": false,
  "tel": "02-305-3875",
  "longitude": 126.9091299,
  "latitude": 37.5958353,
  "isContact": false,
  "status": "정보없음",
  "week": "정보없음",
  "sat": "정보없음",
  "sun": "정보없음"
  },
  {
  "address": "서울특별시 마포구 백범로 96 2층 (대흥동)",
  "name": "마리이비인후과의원",
  "subject": "이비인후과",
  "isPcr": true,
  "isRat": true,
  "category": "의원",
  "isClinic": false,
  "tel": "02-715-3239",
  "longitude": 126.9420401,
  "latitude": "37.5476430",
  "isContact": true,
  "status": "진료중",
  "week": "08:40 ~ 18:30",
  "sat": "08:40 ~ 14:00",
  "sun": "휴무"
  },
  {
  "address": "서울특별시 송파구 마천로 264 2층 3호 (거여동, 흥일빌딩)",
  "name": "행복한서내과의원",
  "subject": "내과",
  "isPcr": false,
  "isRat": true,
  "category": "의원",
  "isClinic": false,
  "tel": "02-443-7826",
  "longitude": 127.1461657,
  "latitude": 37.4980924,
  "isContact": true,
  "status": "진료중",
  "week": "09:00 ~ 18:30",
  "sat": "08:30 ~ 13:00",
  "sun": "휴무"
  },
  {
  "address": "서울특별시 강서구 허준로 198 303호 (가양동, 가양프라자)",
  "name": "비전이비인후과의원",
  "subject": "내과",
  "isPcr": false,
  "isRat": true,
  "category": "의원",
  "isClinic": false,
  "tel": "02-3664-8001",
  "longitude": 126.8602683,
  "latitude": 37.5613201,
  "isContact": false,
  "status": "진료중",
  "week": "09:10 ~ 18:00",
  "sat": "09:10 ~ 15:00",
  "sun": "휴무"
  },
  {
  "address": "서울특별시 관악구 관악로 165 (봉천동, 양지빌딩)",
  "name": "서울W내과의원",
  "subject": "내과",
  "isPcr": false,
  "isRat": true,
  "category": "의원",
  "isClinic": false,
  "tel": "02-871-5600",
  "longitude": 126.9521225,
  "latitude": 37.4800778,
  "isContact": false,
  "status": "정보없음",
  "week": "정보없음",
  "sat": "정보없음",
  "sun": "정보없음"
  },
  {
  "address": "서울특별시 은평구 불광로 25 2,3층 (대조동)",
  "name": "서울아산이비인후과의원",
  "subject": "이비인후과",
  "isPcr": false,
  "isRat": true,
  "category": "의원",
  "isClinic": false,
  "tel": "02-6952-0808",
  "longitude": 126.9287147,
  "latitude": 37.6106539,
  "isContact": false,
  "status": "정보없음",
  "week": "정보없음",
  "sat": "정보없음",
  "sun": "정보없음"
  },
  {
  "address": "서울특별시 강남구 테헤란로 120 상경빌딩 3층 (역삼동)",
  "name": "제이마취통증의학과의원",
  "subject": "정형외과",
  "isPcr": false,
  "isRat": true,
  "category": "의원",
  "isClinic": false,
  "tel": "02-2052-5005",
  "longitude": 127.0309467,
  "latitude": 37.4986172,
  "isContact": true,
  "status": "정보없음",
  "week": "정보없음",
  "sat": "정보없음",
  "sun": "정보없음"
  },
  {
  "address": "서울특별시 노원구 동일로 1551 삼전빌딩 202호 (상계동)",
  "name": "비타민가정의원",
  "subject": "내과",
  "isPcr": true,
  "isRat": true,
  "category": "의원",
  "isClinic": false,
  "tel": "02-951-8279",
  "longitude": "127.0568690",
  "latitude": 37.6668972,
  "isContact": true,
  "status": "진료중",
  "week": "09:30 ~ 18:30",
  "sat": "휴무",
  "sun": "09:00 ~ 14:00"
  },
  {
  "address": "서울특별시 서초구 사임당로 158 리더스원 상가 3층 306호 (서초동)",
  "name": "서초아이소아청소년과의원",
  "subject": "내과",
  "isPcr": false,
  "isRat": true,
  "category": "의원",
  "isClinic": false,
  "tel": "02-583-5355",
  "longitude": "127.0119360",
  "latitude": 37.5086203,
  "isContact": false,
  "status": "정보없음",
  "week": "정보없음",
  "sat": "정보없음",
  "sun": "정보없음"
  },
  {
  "address": "서울특별시 강남구 학동로 413 청담빌딩 202호 (청담동)",
  "name": "청담마인소아청소년과의원",
  "subject": "내과",
  "isPcr": false,
  "isRat": true,
  "category": "의원",
  "isClinic": false,
  "tel": "02-547-7700",
  "longitude": 127.0451947,
  "latitude": 37.5181798,
  "isContact": false,
  "status": "정보없음",
  "week": "정보없음",
  "sat": "정보없음",
  "sun": "정보없음"
  },
  {
  "address": "서울특별시 강동구 양재대로 1365 (성내동, 심포니타워)",
  "name": "미래이비인후과의원",
  "subject": "이비인후과",
  "isPcr": false,
  "isRat": true,
  "category": "의원",
  "isClinic": false,
  "tel": "02-477-5075",
  "longitude": 127.1359371,
  "latitude": "37.5280500",
  "isContact": false,
  "status": "정보없음",
  "week": "정보없음",
  "sat": "정보없음",
  "sun": "정보없음"
  },
  {
  "address": "서울특별시 노원구 공릉로 187 301호 (공릉동, 건설빌딩)",
  "name": "열린이비인후과의원",
  "subject": "이비인후과",
  "isPcr": false,
  "isRat": true,
  "category": "의원",
  "isClinic": false,
  "tel": "3296-5075",
  "longitude": 127.0786598,
  "latitude": "37.6264730",
  "isContact": false,
  "status": "정보없음",
  "week": "정보없음",
  "sat": "정보없음",
  "sun": "정보없음"
  },
  {
  "address": "서울특별시 동작구 상도로 104 (상도동)",
  "name": "연세한이비인후과의원",
  "subject": "내과",
  "isPcr": false,
  "isRat": true,
  "category": "의원",
  "isClinic": false,
  "tel": "02-816-3178",
  "longitude": 126.9321692,
  "latitude": 37.5004476,
  "isContact": true,
  "status": "진료중",
  "week": "09:00 ~ 19:00",
  "sat": "09:00 ~ 15:00",
  "sun": "휴무"
  },
  {
  "address": "서울특별시 강남구 영동대로 513 (삼성동, 코엑스몰 지하 H111)",
  "name": "코나이비인후과의원",
  "subject": "내과",
  "isPcr": false,
  "isRat": true,
  "category": "의원",
  "isClinic": false,
  "tel": "02-6002-3338",
  "longitude": 127.0594275,
  "latitude": 37.5116621,
  "isContact": true,
  "status": "정보없음",
  "week": "정보없음",
  "sat": "정보없음",
  "sun": "정보없음"
  },
  {
  "address": "서울특별시 강남구 압구정로 130 2층 (신사동)",
  "name": "리붐내과의원",
  "subject": "내과",
  "isPcr": false,
  "isRat": true,
  "category": "의원",
  "isClinic": false,
  "tel": "02-512-6630",
  "longitude": 127.0229421,
  "latitude": 37.5241491,
  "isContact": false,
  "status": "정보없음",
  "week": "정보없음",
  "sat": "정보없음",
  "sun": "정보없음"
  },
  {
  "address": "서울특별시 강북구 오현로 193-0 3층 (번동, 한성빌딩)",
  "name": "삼성드림소아청소년과의원",
  "subject": "내과",
  "isPcr": true,
  "isRat": true,
  "category": "의원",
  "isClinic": false,
  "tel": "02-988-8288",
  "longitude": "127.0393460",
  "latitude": 37.6289693,
  "isContact": true,
  "status": "정보없음",
  "week": "정보없음",
  "sat": "정보없음",
  "sun": "정보없음"
  },
  {
  "address": "서울특별시 은평구 서오릉로 196 2층 (갈현동, 구산빌딩)",
  "name": "예지소아청소년과의원",
  "subject": "소아청소년과",
  "isPcr": false,
  "isRat": true,
  "category": "의원",
  "isClinic": false,
  "tel": "02-308-1725",
  "longitude": 126.9120303,
  "latitude": 37.6138287,
  "isContact": true,
  "status": "정보없음",
  "week": "정보없음",
  "sat": "정보없음",
  "sun": "정보없음"
  },
  {
  "address": "서울특별시 광진구 광나루로 529 (구의동)",
  "name": "참조은의원",
  "subject": "내과",
  "isPcr": false,
  "isRat": true,
  "category": "의원",
  "isClinic": false,
  "tel": "02-455-5601~2",
  "longitude": 127.0884822,
  "latitude": 37.5451544,
  "isContact": true,
  "status": "정보없음",
  "week": "정보없음",
  "sat": "정보없음",
  "sun": "정보없음"
  },
  {
  "address": "서울특별시 동대문구 신이문로 27 2층 (이문동)",
  "name": "연세이문소아청소년과의원",
  "subject": "내과",
  "isPcr": false,
  "isRat": true,
  "category": "의원",
  "isClinic": false,
  "tel": "02-962-3062",
  "longitude": 127.0652852,
  "latitude": 37.6031789,
  "isContact": true,
  "status": "진료중",
  "week": "08:30 ~ 22:00",
  "sat": "08:30 ~ 19:00",
  "sun": "08:30 ~ 19:00"
  },
  {
  "address": "서울특별시 강남구 강남대로 334 (역삼동, 6층일부)",
  "name": "강남성모이비인후과의원",
  "subject": "내과",
  "isPcr": false,
  "isRat": true,
  "category": "의원",
  "isClinic": false,
  "tel": "02-552-5400",
  "longitude": 127.0304818,
  "latitude": 37.4929925,
  "isContact": false,
  "status": "정보없음",
  "week": "정보없음",
  "sat": "정보없음",
  "sun": "정보없음"
  },
  {
  "address": "서울특별시 구로구 남부순환로97길 3 KS프리미어빌딩 402호 (개봉동)",
  "name": "열린이비인후과의원",
  "subject": "내과",
  "isPcr": false,
  "isRat": true,
  "category": "의원",
  "isClinic": false,
  "tel": "02-2689-5075",
  "longitude": 126.8582496,
  "latitude": 37.4940221,
  "isContact": false,
  "status": "진료중",
  "week": "09:00 ~ 19:00",
  "sat": "09:00 ~ 16:00",
  "sun": "휴무"
  },
  {
  "address": "서울특별시 구로구 남부순환로97길 3 KS프리미어빌딩 501호 (개봉동)",
  "name": "연세정인내과의원",
  "subject": "내과",
  "isPcr": false,
  "isRat": true,
  "category": "의원",
  "isClinic": false,
  "tel": "02-2612-8700",
  "longitude": 126.8582496,
  "latitude": 37.4940221,
  "isContact": true,
  "status": "정보없음",
  "week": "정보없음",
  "sat": "정보없음",
  "sun": "정보없음"
  },
  {
  "address": "서울특별시 송파구 오금로32길 35 2층 201호 (송파동)",
  "name": "그린소아청소년과의원",
  "subject": "내과",
  "isPcr": false,
  "isRat": true,
  "category": "의원",
  "isClinic": false,
  "tel": "02-420-6006",
  "longitude": 127.1190152,
  "latitude": 37.5032395,
  "isContact": true,
  "status": "정보없음",
  "week": "정보없음",
  "sat": "정보없음",
  "sun": "정보없음"
  },
  {
  "address": "서울특별시 강서구 화곡로 194-15 2층 (화곡동)",
  "name": "원이비인후과의원",
  "subject": "내과",
  "isPcr": false,
  "isRat": true,
  "category": "의원",
  "isClinic": false,
  "tel": "02-2607-5275",
  "longitude": 126.8436711,
  "latitude": 37.5426689,
  "isContact": true,
  "status": "정보없음",
  "week": "정보없음",
  "sat": "정보없음",
  "sun": "정보없음"
  },
  {
  "address": "서울특별시 강서구 월정로 160 204호 (화곡동, 대림아상가)",
  "name": "하나로이비인후과의원",
  "subject": "내과",
  "isPcr": false,
  "isRat": true,
  "category": "의원",
  "isClinic": false,
  "tel": "02-2606-2975",
  "longitude": "126.8372410",
  "latitude": 37.5336919,
  "isContact": false,
  "status": "정보없음",
  "week": "정보없음",
  "sat": "정보없음",
  "sun": "정보없음"
  },
  {
  "address": "서울특별시 서초구 바우뫼로 23 301호 (우면동, 선일빙딩)",
  "name": "명성내과의원",
  "subject": "내과",
  "isPcr": false,
  "isRat": true,
  "category": "의원",
  "isClinic": false,
  "tel": "02-572-8975",
  "longitude": 127.0252675,
  "latitude": 37.4704214,
  "isContact": true,
  "status": "정보없음",
  "week": "정보없음",
  "sat": "정보없음",
  "sun": "정보없음"
  },
  {
  "address": "서울특별시 은평구 진관2로 15-46 705,706호 (진관동, 메트로프라자)",
  "name": "지앤선소아청소년과의원",
  "subject": "내과",
  "isPcr": false,
  "isRat": true,
  "category": "의원",
  "isClinic": false,
  "tel": "02-382-1175",
  "longitude": 126.9190942,
  "latitude": "37.6386250",
  "isContact": false,
  "status": "정보없음",
  "week": "정보없음",
  "sat": "정보없음",
  "sun": "정보없음"
  },
  {
  "address": "서울특별시 중랑구 동일로 917 3층 (묵동)",
  "name": "서울내과의원",
  "subject": "내과",
  "isPcr": false,
  "isRat": true,
  "category": "의원",
  "isClinic": false,
  "tel": "02-976-7550",
  "longitude": 127.0771157,
  "latitude": 37.6122134,
  "isContact": true,
  "week": "정보없음",
  "sat": "휴무",
  "sun": "휴무"
  },
  {
  "address": "서울특별시 관악구 호암로 602 2층 (신림동, 도원빌딩)",
  "name": "성모가정의학과의원",
  "subject": "가정의학과",
  "isPcr": false,
  "isRat": true,
  "category": "의원",
  "isClinic": false,
  "tel": "02-889-3553",
  "longitude": 126.9338042,
  "latitude": 37.4708153,
  "isContact": false,
  "status": "정보없음",
  "week": "정보없음",
  "sat": "정보없음",
  "sun": "정보없음"
  },
  {
  "address": "서울특별시 서초구 고무래로 26 3층 (반포동, 반포동 대영빌딩)",
  "name": "신민호이비인후과의원",
  "subject": "이비인후과",
  "isPcr": false,
  "isRat": true,
  "category": "의원",
  "isClinic": false,
  "tel": "02-596-6121",
  "longitude": 127.0112636,
  "latitude": "37.5023530",
  "isContact": true,
  "status": "정보없음",
  "week": "정보없음",
  "sat": "정보없음",
  "sun": "정보없음"
  },
  {
  "address": "서울특별시 금천구 시흥대로 214 402호 (시흥동, 비즈메디빌딩)",
  "name": "시흥우리들소아청소년과의원",
  "subject": "소아청소년과",
  "isPcr": false,
  "isRat": true,
  "category": "의원",
  "isClinic": false,
  "tel": "802-0805",
  "longitude": 126.9016824,
  "latitude": 37.4530528,
  "isContact": true,
  "status": "진료중",
  "week": "09:00 ~ 21:00",
  "sat": "09:00 ~ 17:00",
  "sun": "10:00 ~ 15:00"
  },
  {
  "address": "서울특별시 중랑구 면목로 419 4층 (면목동)",
  "name": "신일가정의원",
  "subject": "내과",
  "isPcr": false,
  "isRat": true,
  "category": "의원",
  "isClinic": false,
  "tel": "02-438-0675",
  "longitude": 127.0870107,
  "latitude": "37.5894160",
  "isContact": true,
  "status": "정보없음",
  "week": "정보없음",
  "sat": "정보없음",
  "sun": "정보없음"
  },
  {
  "address": "서울특별시 서대문구 통일로 131 공화당빌딩 5층 (충정로2가)",
  "name": "서대문하나이비인후과의원",
  "subject": "이비인후과",
  "isPcr": false,
  "isRat": true,
  "category": "의원",
  "isClinic": false,
  "tel": "02-364-9925",
  "longitude": 126.9658718,
  "latitude": "37.5661560",
  "isContact": false,
  "status": "정보없음",
  "week": "정보없음",
  "sat": "정보없음",
  "sun": "정보없음"
  },
  {
  "address": "서울특별시 관악구 쑥고개로 51-1 (봉천동)",
  "name": "관악성모의원",
  "subject": "내과",
  "isPcr": false,
  "isRat": true,
  "category": "의원",
  "isClinic": false,
  "tel": "02-889-5353",
  "longitude": 126.9422959,
  "latitude": 37.4797977,
  "isContact": true,
  "status": "정보없음",
  "week": "정보없음",
  "sat": "정보없음",
  "sun": "정보없음"
  },
  {
  "address": "서울특별시 양천구 신월로 357 (신정동)",
  "name": "양천탑의원",
  "subject": "내과",
  "isPcr": false,
  "isRat": true,
  "category": "의원",
  "isClinic": false,
  "tel": "02-2608-7920",
  "longitude": 126.8606804,
  "latitude": 37.5222356,
  "isContact": true,
  "status": "정보없음",
  "week": "정보없음",
  "sat": "정보없음",
  "sun": "정보없음"
  },
  {
  "address": "서울특별시 성동구 동호로 100 508, 509호 (금호동3가, 두산아파트상가)",
  "name": "예원내과의원",
  "subject": "내과",
  "isPcr": false,
  "isRat": true,
  "category": "의원",
  "isClinic": false,
  "tel": "02-2253-7898",
  "longitude": 127.0164657,
  "latitude": 37.5506428,
  "isContact": true,
  "status": "진료중",
  "week": "09:00 ~ 18:00",
  "sat": "09:00 ~ 13:00",
  "sun": "휴무"
  },
  {
  "address": "서울특별시 은평구 갈현로 8 402호 (신사동,신창메디칼빌딩)",
  "name": "최성환이비인후과의원",
  "subject": "이비인후과",
  "isPcr": false,
  "isRat": true,
  "category": "의원",
  "isClinic": false,
  "tel": "02-357-6641",
  "longitude": 126.9104122,
  "latitude": 37.5985583,
  "isContact": true,
  "status": "진료중",
  "week": "09:30 ~ 18:30",
  "sat": "09:30 ~ 13:00",
  "sun": "휴무"
  },
  {
  "address": "서울특별시 동대문구 약령시로 126 3층 (청량리동)",
  "name": "유진내과의원",
  "subject": "내과",
  "isPcr": false,
  "isRat": true,
  "category": "의원",
  "isClinic": false,
  "tel": "02-969-7670",
  "longitude": 127.0439635,
  "latitude": 37.5829493,
  "isContact": true,
  "status": "정보없음",
  "week": "정보없음",
  "sat": "정보없음",
  "sun": "정보없음"
  },
  {
  "address": "서울특별시 동대문구 망우로16길 21 2층 (휘경동)",
  "name": "최묘경의원",
  "subject": "내과",
  "isPcr": false,
  "isRat": true,
  "category": "의원",
  "isClinic": false,
  "tel": "02-2213-5197",
  "longitude": 127.0613473,
  "latitude": 37.5891595,
  "isContact": true,
  "status": "정보없음",
  "week": "정보없음",
  "sat": "정보없음",
  "sun": "정보없음"
  },
  {
  "address": "서울특별시 강동구 동남로81길 100 2층 (고덕동)",
  "name": "이종수내과의원",
  "subject": "내과",
  "isPcr": false,
  "isRat": true,
  "category": "의원",
  "isClinic": false,
  "tel": "02-441-6905",
  "longitude": 127.1517265,
  "latitude": 37.5589851,
  "isContact": true,
  "status": "정보없음",
  "week": "정보없음",
  "sat": "정보없음",
  "sun": "정보없음"
  },
  {
  "address": "서울특별시 동작구 장승배기로 119 2층 (노량진동)",
  "name": "형운준소아청소년과의원",
  "subject": "내과",
  "isPcr": false,
  "isRat": true,
  "category": "의원",
  "isClinic": false,
  "tel": "02-826-1661",
  "longitude": 126.9396859,
  "latitude": 37.5074006,
  "isContact": true,
  "status": "정보없음",
  "week": "정보없음",
  "sat": "정보없음",
  "sun": "정보없음"
  },
  {
  "address": "서울특별시 강남구 선릉로86길 17 (대치동, 선릉 MT 빌딩)",
  "name": "푸른하늘이비인후과의원",
  "subject": "이비인후과",
  "isPcr": false,
  "isRat": true,
  "category": "의원",
  "isClinic": false,
  "tel": "02-554-7586",
  "longitude": "127.0510900",
  "latitude": 37.5035623,
  "isContact": true,
  "status": "정보없음",
  "week": "정보없음",
  "sat": "정보없음",
  "sun": "정보없음"
  },
  {
  "address": "서울특별시 양천구 중앙로 262 메디바이오플렉스 502,503호 (신정동)",
  "name": "달팽이이비인후과의원",
  "subject": "내과",
  "isPcr": true,
  "isRat": true,
  "category": "의원",
  "isClinic": false,
  "tel": "02-2062-4298",
  "longitude": "126.8534170",
  "latitude": 37.5198526,
  "isContact": true,
  "status": "진료중",
  "week": "09:00 ~ 19:00",
  "sat": "09:00 ~ 14:00",
  "sun": "09:00 ~ 13:00"
  },
  {
  "address": "서울특별시 강서구 양천로 431 홈플러스가양점 지하2층 (가양동)",
  "name": "연세메디플러스의원",
  "subject": "내과",
  "isPcr": false,
  "isRat": true,
  "category": "의원",
  "isClinic": false,
  "tel": "02-3662-3040",
  "longitude": 126.8499602,
  "latitude": 37.5642641,
  "isContact": true,
  "status": "진료중",
  "week": "10:00 ~ 19:00",
  "sat": "10:00 ~ 17:00",
  "sun": "10:00 ~ 17:00"
  },
  {
  "address": "서울특별시 강남구 선릉로10길 5 2층 (개포동)",
  "name": "송영명소아과의원",
  "subject": "소아청소년과",
  "isPcr": false,
  "isRat": true,
  "category": "의원",
  "isClinic": false,
  "tel": "573-6227",
  "longitude": 127.0606735,
  "latitude": 37.4833584,
  "isContact": true,
  "status": "정보없음",
  "week": "정보없음",
  "sat": "정보없음",
  "sun": "정보없음"
  },
  {
  "address": "서울특별시 금천구 가산디지털1로 171 가산 에스케이 브이원 센터 202호 (가산동)",
  "name": "애플이비인후과의원",
  "subject": "소아청소년과",
  "isPcr": false,
  "isRat": true,
  "category": "의원",
  "isClinic": false,
  "tel": "02-6268-7575",
  "longitude": 126.8806788,
  "latitude": 37.4807624,
  "isContact": false,
  "status": "정보없음",
  "week": "정보없음",
  "sat": "정보없음",
  "sun": "정보없음"
  },
  {
  "address": "서울특별시 서대문구 가좌로 65 1,2층 (홍은동, 서강주상복합아파트)",
  "name": "서강정형외과의원",
  "subject": "내과",
  "isPcr": false,
  "isRat": true,
  "category": "의원",
  "isClinic": false,
  "tel": "02-306-6119",
  "longitude": 126.9290009,
  "latitude": 37.5790991,
  "isContact": false,
  "status": "정보없음",
  "week": "정보없음",
  "sat": "정보없음",
  "sun": "정보없음"
  },
  {
  "address": "서울특별시 송파구 위례광장로 199 성희프라자 4층 404~405호 (장지동)",
  "name": "위례선가정의학과의원",
  "subject": "내과",
  "isPcr": true,
  "isRat": true,
  "category": "의원",
  "isClinic": false,
  "tel": "02-431-8250",
  "longitude": 127.1427636,
  "latitude": 37.4816857,
  "isContact": true,
  "status": "정보없음",
  "week": "정보없음",
  "sat": "정보없음",
  "sun": "정보없음"
  },
  {
  "address": "서울특별시 송파구 오금로 91 (방이동, 태원빌딩 2층)",
  "name": "송파서울이비인후과의원",
  "subject": "내과",
  "isPcr": false,
  "isRat": true,
  "category": "의원",
  "isClinic": false,
  "tel": "02-420-8264",
  "longitude": 127.1076683,
  "latitude": 37.5140573,
  "isContact": false,
  "status": "진료중",
  "week": "09:30 ~ 18:30",
  "sat": "09:30 ~ 14:00",
  "sun": "휴무"
  },
  {
  "address": "서울특별시 노원구 노해로 482 4층 (상계동, 덕영빌딩)",
  "name": "삼성드림이비인후과의원",
  "subject": "성형외과",
  "isPcr": false,
  "isRat": true,
  "category": "의원",
  "isClinic": false,
  "longitude": 127.0617327,
  "latitude": 37.6542666,
  "isContact": false,
  "status": "정보없음",
  "week": "정보없음",
  "sat": "정보없음",
  "sun": "정보없음"
  },
  {
  "address": "서울특별시 강남구 학동로 215 CL타워 4층 405-407호 (논현동)",
  "name": "연세이롬이비인후과의원",
  "subject": "이비인후과",
  "isPcr": true,
  "isRat": true,
  "category": "의원",
  "isClinic": false,
  "tel": "02-547-2522",
  "longitude": 127.0325683,
  "latitude": 37.5148748,
  "isContact": true,
  "status": "정보없음",
  "week": "정보없음",
  "sat": "정보없음",
  "sun": "정보없음"
  },
  {
  "address": "서울특별시 은평구 은평로 111 은평이마트 8층 (응암동)",
  "name": "우리연합의원",
  "subject": "내과",
  "isPcr": false,
  "isRat": true,
  "category": "의원",
  "isClinic": false,
  "tel": "02-356-7768",
  "longitude": 126.9205287,
  "latitude": 37.6008422,
  "isContact": true,
  "status": "정보없음",
  "week": "정보없음",
  "sat": "정보없음",
  "sun": "정보없음"
  },
  {
  "address": "서울특별시 도봉구 덕릉로 239 2층 (창동)",
  "name": "서울이비인후과의원",
  "subject": "내과",
  "isPcr": false,
  "isRat": true,
  "category": "의원",
  "isClinic": false,
  "tel": "02-990-8270",
  "longitude": 127.0382445,
  "latitude": 37.6391894,
  "isContact": true,
  "status": "진료중",
  "week": "09:00 ~ 18:30",
  "sat": "09:00 ~ 14:30",
  "sun": "휴무"
  },
  {
  "address": "서울특별시 송파구 양재대로 932 관리업무동 5층 505호 (가락동, 가락동 농수산물도매시장)",
  "name": "가락한솔의원",
  "subject": "내과",
  "isPcr": true,
  "isRat": true,
  "category": "의원",
  "isClinic": false,
  "tel": "02-6978-3456",
  "longitude": 127.1110027,
  "latitude": 37.4961026,
  "isContact": true,
  "status": "진료중",
  "week": "08:30 ~ 18:00",
  "sat": "08:30 ~ 12:00",
  "sun": "휴무"
  },
  {
  "address": "서울특별시 강서구 강서로45길 174 3층 (내발산동, SM타워)",
  "name": "삼성서울의원",
  "subject": "내과",
  "isPcr": false,
  "isRat": true,
  "category": "의원",
  "isClinic": false,
  "tel": "02-2666-1888",
  "longitude": 126.8306181,
  "latitude": 37.5528825,
  "isContact": false,
  "status": "정보없음",
  "week": "정보없음",
  "sat": "정보없음",
  "sun": "정보없음"
  },
  {
  "address": "서울특별시 마포구 월드컵로 79 3층 (망원동, 유용빌딩)",
  "name": "드림이비인후과의원",
  "subject": "이비인후과",
  "isPcr": false,
  "isRat": true,
  "category": "의원",
  "isClinic": false,
  "tel": "02-338-5050",
  "longitude": 126.9098535,
  "latitude": 37.5559537,
  "isContact": false,
  "status": "진료중",
  "week": "09:00 ~ 18:50",
  "sat": "09:00 ~ 13:00",
  "sun": "휴무"
  },
  {
  "address": "서울특별시 송파구 마천로5길 4 삼대양빌딩 4층 (오금동)",
  "name": "공내과의원",
  "subject": "내과",
  "isPcr": false,
  "isRat": true,
  "category": "의원",
  "isClinic": false,
  "tel": "02-402-1230",
  "longitude": 127.1267564,
  "latitude": 37.5087274,
  "isContact": true,
  "status": "진료중",
  "week": "09:00 ~ 18:30",
  "sat": "09:00 ~ 14:00",
  "sun": "휴무"
  },
  {
  "address": "서울특별시 중구 서소문로 116 유원빌딩 13층 1305, 1306, 1307, 1308호 (서소문동)",
  "name": "맑은숲이비인후과의원",
  "subject": "내과",
  "isPcr": false,
  "isRat": true,
  "category": "의원",
  "isClinic": false,
  "tel": "02-753-5075",
  "longitude": 126.9740244,
  "latitude": 37.5627337,
  "isContact": false,
  "status": "정보없음",
  "week": "정보없음",
  "sat": "정보없음",
  "sun": "정보없음"
  },
  {
  "address": "서울특별시 중구 남대문로 18 (남대문로3가)",
  "name": "미래의원",
  "subject": "내과",
  "isPcr": true,
  "isRat": true,
  "category": "의원",
  "isClinic": false,
  "tel": "778-5801",
  "longitude": 126.9777422,
  "latitude": 37.5607683,
  "isContact": true,
  "status": "정보없음",
  "week": "정보없음",
  "sat": "정보없음",
  "sun": "정보없음"
  },
  {
  "address": "서울특별시 성북구 돌곶이로 152 1층 (장위동)",
  "name": "홍요한내과의원",
  "subject": "내과",
  "isPcr": false,
  "isRat": true,
  "category": "의원",
  "isClinic": false,
  "tel": "911-2575",
  "longitude": 127.0520739,
  "latitude": 37.6153216,
  "isContact": false,
  "status": "정보없음",
  "week": "정보없음",
  "sat": "정보없음",
  "sun": "정보없음"
  },
  {
  "address": "서울특별시 강남구 논현로 503 701호 (역삼동, 송촌빌딩)",
  "name": "역삼이창훈이비인후과의원",
  "subject": "내과",
  "isPcr": true,
  "isRat": true,
  "category": "의원",
  "isClinic": false,
  "tel": "02-564-5647",
  "longitude": 127.0363876,
  "latitude": "37.5012700",
  "isContact": true,
  "status": "진료중",
  "week": "09:00 ~ 19:00",
  "sat": "09:00 ~ 13:00",
  "sun": "휴무"
  },
  {
  "address": "서울특별시 중랑구 망우로 214 우도빌딩 2층 201호 (상봉동)",
  "name": "맑은이비인후과의원",
  "subject": "이비인후과",
  "isPcr": false,
  "isRat": true,
  "category": "의원",
  "isClinic": false,
  "tel": "02-2274-1360",
  "longitude": 127.0765527,
  "latitude": 37.5937528,
  "isContact": true,
  "status": "정보없음",
  "week": "정보없음",
  "sat": "정보없음",
  "sun": "정보없음"
  },
  {
  "address": "서울특별시 강서구 등촌로5길 2 3층 (화곡동)",
  "name": "강서삼성정형외과의원",
  "subject": "정형외과",
  "isPcr": true,
  "isRat": true,
  "category": "의원",
  "isClinic": false,
  "tel": "02-2651-8833",
  "longitude": 126.8633118,
  "latitude": 37.5334735,
  "isContact": false,
  "status": "정보없음",
  "week": "정보없음",
  "sat": "정보없음",
  "sun": "정보없음"
  },
  {
  "address": "서울특별시 강서구 양천로 72 4층 (방화동, 해성빌딩)",
  "name": "수이비인후과의원",
  "subject": "내과",
  "isPcr": false,
  "isRat": true,
  "category": "의원",
  "isClinic": false,
  "tel": "02-2662-8675",
  "longitude": 126.8117248,
  "latitude": 37.5731875,
  "isContact": true,
  "status": "정보없음",
  "week": "정보없음",
  "sat": "정보없음",
  "sun": "정보없음"
  },
  {
  "address": "서울특별시 노원구 한글비석로 250 219호 (중계동, 그린코아빌딩)",
  "name": "엘림소아청소년과의원",
  "subject": "내과",
  "isPcr": false,
  "isRat": true,
  "category": "의원",
  "isClinic": false,
  "tel": "02-930-9343",
  "longitude": 127.0770202,
  "latitude": "37.6500360",
  "isContact": false,
  "status": "정보없음",
  "week": "정보없음",
  "sat": "정보없음",
  "sun": "정보없음"
  },
  {
  "address": "서울특별시 관악구 남부순환로 1956 (봉천동)",
  "name": "영락가정의학과의원",
  "subject": "내과",
  "isPcr": false,
  "isRat": true,
  "category": "의원",
  "isClinic": false,
  "tel": "02-3661-1138",
  "longitude": 126.9659952,
  "latitude": 37.4758623,
  "isContact": true,
  "status": "정보없음",
  "week": "정보없음",
  "sat": "정보없음",
  "sun": "정보없음"
  },
  {
  "address": "서울특별시 성북구 종암로 122 3층 (종암동, 시원빌딩)",
  "name": "스타이비인후과 의원",
  "subject": "내과",
  "isPcr": true,
  "isRat": true,
  "category": "의원",
  "isClinic": false,
  "tel": "02-909-8235",
  "longitude": 127.0339268,
  "latitude": 37.6011698,
  "isContact": true,
  "status": "정보없음",
  "week": "정보없음",
  "sat": "정보없음",
  "sun": "정보없음"
  },
  {
  "address": "서울특별시 광진구 뚝섬로 558 대양빌딩 202호 (자양동)",
  "name": "벗이비인후과의원",
  "subject": "내과",
  "isPcr": false,
  "isRat": true,
  "category": "의원",
  "isClinic": false,
  "tel": "02-6953-5805",
  "longitude": 127.0718481,
  "latitude": 37.5341181,
  "isContact": false,
  "status": "정보없음",
  "week": "정보없음",
  "sat": "정보없음",
  "sun": "정보없음"
  },
  {
  "address": "서울특별시 관악구 관악로 195 411호 (봉천동)",
  "name": "연세내과의원",
  "subject": "내과",
  "isPcr": false,
  "isRat": true,
  "category": "의원",
  "isClinic": false,
  "tel": "02-875-7557",
  "longitude": 126.9531143,
  "latitude": 37.4828207,
  "isContact": true,
  "status": "정보없음",
  "week": "정보없음",
  "sat": "정보없음",
  "sun": "정보없음"
  },
  {
  "address": "서울특별시 서초구 남부순환로350길 4 401호 (양재동, 대진빌딩)",
  "name": "서울이비인후과의원",
  "subject": "이비인후과",
  "isPcr": false,
  "isRat": true,
  "category": "의원",
  "isClinic": false,
  "tel": "573-7565",
  "longitude": 127.0352051,
  "latitude": 37.4843523,
  "isContact": true,
  "status": "진료중",
  "week": "09:00 ~ 18:30",
  "sat": "09:00 ~ 13:00",
  "sun": "휴무"
  },
  {
  "address": "서울특별시 동대문구 천호대로 273 5층 (답십리동)",
  "name": "큰길내과의원",
  "subject": "내과",
  "isPcr": false,
  "isRat": true,
  "category": "의원",
  "isClinic": false,
  "tel": "02-2215-7585",
  "longitude": 127.0520554,
  "latitude": 37.5678418,
  "isContact": true,
  "status": "정보없음",
  "week": "정보없음",
  "sat": "정보없음",
  "sun": "정보없음"
  },
  {
  "address": "서울특별시 금천구 독산로 133 2,3층 (시흥동)",
  "name": "이장교내과의원",
  "subject": "내과",
  "isPcr": false,
  "isRat": true,
  "category": "의원",
  "isClinic": false,
  "tel": "02-802-2624",
  "longitude": 126.9048585,
  "latitude": 37.4591788,
  "isContact": false,
  "status": "정보없음",
  "week": "정보없음",
  "sat": "정보없음",
  "sun": "정보없음"
  },
  {
  "address": "서울특별시 송파구 위례광장로 230 C동 201,202호 (장지동, 위례2차아이파크)",
  "name": "이루이비인후과의원",
  "subject": "내과",
  "isPcr": true,
  "isRat": true,
  "category": "의원",
  "isClinic": false,
  "tel": "02-406-2500",
  "longitude": 127.1437404,
  "latitude": 37.4800734,
  "isContact": true,
  "status": "정보없음",
  "week": "정보없음",
  "sat": "정보없음",
  "sun": "정보없음"
  },
  {
  "address": "서울특별시 강서구 강서로 259 4층 401호 (내발산동, 엠버리움빌딩)",
  "name": "열린성모이비인후과의원",
  "subject": "이비인후과",
  "isPcr": false,
  "isRat": true,
  "category": "의원",
  "isClinic": false,
  "tel": "02-2697-7582",
  "longitude": "126.8359840",
  "latitude": 37.5488837,
  "isContact": false,
  "status": "정보없음",
  "week": "정보없음",
  "sat": "정보없음",
  "sun": "정보없음"
  },
  {
  "address": "서울특별시 중랑구 겸재로 181 2층 (면목동)",
  "name": "보아스이비인후과의원",
  "subject": "내과",
  "isPcr": true,
  "isRat": true,
  "category": "의원",
  "isClinic": false,
  "tel": "02-2207-1530",
  "longitude": 127.0878011,
  "latitude": 37.5886591,
  "isContact": true,
  "status": "진료중",
  "week": "09:00 ~ 18:00",
  "sat": "휴무",
  "sun": "휴무"
  },
  {
  "address": "서울특별시 성북구 오패산로 69 4층 (하월곡동)",
  "name": "누가이비인후과의원",
  "subject": "소아청소년과",
  "isPcr": true,
  "isRat": true,
  "category": "의원",
  "isClinic": false,
  "tel": "02-941-7250",
  "longitude": 127.0360252,
  "latitude": 37.6082166,
  "isContact": true,
  "status": "진료중",
  "week": "09:30 ~ 19:00",
  "sat": "09:30 ~ 15:00",
  "sun": "휴무"
  },
  {
  "address": "서울특별시 송파구 위례성대로 178 올림픽빌딩 2층 (오금동)",
  "name": "스마일신경외과의원",
  "subject": "신경외과",
  "isPcr": false,
  "isRat": true,
  "category": "의원",
  "isClinic": false,
  "tel": "02-704-6100",
  "longitude": 127.1307093,
  "latitude": 37.5102347,
  "isContact": true,
  "status": "정보없음",
  "week": "정보없음",
  "sat": "정보없음",
  "sun": "정보없음"
  },
  {
  "address": "서울특별시 중랑구 겸재로 229 2층 (면목동, 농협)",
  "name": "열린가족의원",
  "subject": "내과",
  "isPcr": false,
  "isRat": true,
  "category": "의원",
  "isClinic": false,
  "tel": "02-435-8275",
  "longitude": 127.0928527,
  "latitude": 37.5897832,
  "isContact": true,
  "status": "정보없음",
  "week": "정보없음",
  "sat": "정보없음",
  "sun": "정보없음"
  },
  {
  "address": "서울특별시 강남구 역삼로17길 64 5층 (역삼동, 역삼동A4스페이스)",
  "name": "뉴연세의원",
  "subject": "내과",
  "isPcr": false,
  "isRat": true,
  "category": "의원",
  "isClinic": false,
  "tel": "02-2038-6678",
  "longitude": 127.0366283,
  "latitude": 37.4988038,
  "isContact": false,
  "status": "정보없음",
  "week": "정보없음",
  "sat": "정보없음",
  "sun": "정보없음"
  },
  {
  "address": "서울특별시 노원구 동일로 1280 201호 (중계동, 시영2단지상가)",
  "name": "박상호의원",
  "subject": "내과",
  "isPcr": false,
  "isRat": true,
  "category": "의원",
  "isClinic": false,
  "tel": "02-496-9361",
  "longitude": 127.0657465,
  "latitude": 37.6434986,
  "isContact": true,
  "status": "정보없음",
  "week": "정보없음",
  "sat": "정보없음",
  "sun": "정보없음"
  },
  {
  "address": "서울특별시 중랑구 면목로 418 2층 (면목동)",
  "name": "서울굿모닝내과의원",
  "subject": "내과",
  "isPcr": false,
  "isRat": true,
  "category": "의원",
  "isClinic": false,
  "tel": "02-438-2525",
  "longitude": 127.0875829,
  "latitude": 37.5892745,
  "isContact": true,
  "status": "정보없음",
  "week": "정보없음",
  "sat": "정보없음",
  "sun": "정보없음"
  },
  {
  "address": "서울특별시 관악구 남부순환로 1485 삼남빌딩 2~6층 (신림동)",
  "name": "심정병원",
  "subject": "내과",
  "isPcr": true,
  "isRat": true,
  "category": "병원",
  "isClinic": false,
  "tel": "1588-3330",
  "longitude": 126.9156675,
  "latitude": 37.4823639,
  "isContact": false,
  "status": "진료중",
  "week": "09:00 ~ 18:00",
  "sat": "09:00 ~ 13:00",
  "sun": "휴무"
  },
  {
  "address": "서울특별시 은평구 연서로 35 1층 (역촌동)",
  "name": "지혜소아청소년과의원",
  "subject": "내과",
  "isPcr": false,
  "isRat": true,
  "category": "의원",
  "isClinic": false,
  "tel": "02-386-6781",
  "longitude": "126.9155780",
  "latitude": 37.6022741,
  "isContact": true,
  "status": "정보없음",
  "week": "정보없음",
  "sat": "정보없음",
  "sun": "정보없음"
  },
  {
  "address": "서울특별시 도봉구 마들로 686 2,3,4층 (도봉동, 세림빌딩)",
  "name": "동부한일외과의원",
  "subject": "내과",
  "isPcr": true,
  "isRat": true,
  "category": "의원",
  "isClinic": false,
  "tel": "02-3492-4754",
  "longitude": 127.0466784,
  "latitude": 37.6713929,
  "isContact": true,
  "status": "정보없음",
  "week": "정보없음",
  "sat": "정보없음",
  "sun": "정보없음"
  },
  {
  "address": "서울특별시 노원구 노원로 257 4층 (하계동)",
  "name": "기쁜가정의학과의원",
  "subject": "내과",
  "isPcr": true,
  "isRat": true,
  "category": "의원",
  "isClinic": false,
  "tel": "02-971-4913",
  "longitude": 127.0727733,
  "latitude": 37.6402685,
  "isContact": false,
  "status": "정보없음",
  "week": "정보없음",
  "sat": "정보없음",
  "sun": "정보없음"
  },
  {
  "address": "서울특별시 강서구 양천로 690 3층 (염창동)",
  "name": "주이비인후과의원",
  "subject": "내과",
  "isPcr": false,
  "isRat": true,
  "category": "의원",
  "isClinic": false,
  "tel": "02-3665-3387",
  "longitude": 126.8726376,
  "latitude": 37.5502102,
  "isContact": true,
  "status": "정보없음",
  "week": "정보없음",
  "sat": "정보없음",
  "sun": "정보없음"
  },
  {
  "address": "서울특별시 광진구 뚝섬로 497 (자양동)",
  "name": "박남미이비인후과의원",
  "subject": "이비인후과",
  "isPcr": false,
  "isRat": true,
  "category": "의원",
  "isClinic": false,
  "tel": "02-461-0711",
  "longitude": 127.0656962,
  "latitude": 37.5361417,
  "isContact": false,
  "status": "정보없음",
  "week": "정보없음",
  "sat": "정보없음",
  "sun": "정보없음"
  },
  {
  "address": "서울특별시 은평구 진관4로 37 820동 114,115호 (진관동, 롯데캐슬)",
  "name": "김앤유이비인후과가정의학과연합의원",
  "subject": "내과",
  "isPcr": false,
  "isRat": true,
  "category": "의원",
  "isClinic": false,
  "tel": "02-383-5511",
  "longitude": 126.9248943,
  "latitude": 37.6452911,
  "isContact": false,
  "status": "정보없음",
  "week": "정보없음",
  "sat": "정보없음",
  "sun": "정보없음"
  },
  {
  "address": "서울특별시 노원구 동일로 1361 202동207호 (상계동, 주공2단지상가)",
  "name": "함영백소아과의원",
  "subject": "소아청소년과",
  "isPcr": false,
  "isRat": true,
  "category": "의원",
  "isClinic": false,
  "tel": "02-952-3318",
  "longitude": "127.0612710",
  "latitude": 37.6500313,
  "isContact": false,
  "status": "정보없음",
  "week": "정보없음",
  "sat": "정보없음",
  "sun": "정보없음"
  },
  {
  "address": "서울특별시 관악구 난곡로 53 403호 (신림동, 관악산휴먼시아상가)",
  "name": "연세베스트의원",
  "subject": "내과",
  "isPcr": true,
  "isRat": true,
  "category": "의원",
  "isClinic": false,
  "tel": "02-867-9119",
  "longitude": 126.9193431,
  "latitude": 37.4601484,
  "isContact": true,
  "status": "진료중",
  "week": "09:00 ~ 18:10",
  "sat": "09:00 ~ 14:00",
  "sun": "휴무"
  },
  {
  "address": "서울특별시 은평구 불광로 54 (불광동)",
  "name": "강석경소아과의원",
  "subject": "소아청소년과",
  "isPcr": false,
  "isRat": true,
  "category": "의원",
  "isClinic": false,
  "tel": "02-389-0969",
  "longitude": 126.9315014,
  "latitude": 37.6118226,
  "isContact": true,
  "status": "정보없음",
  "week": "정보없음",
  "sat": "정보없음",
  "sun": "정보없음"
  },
  {
  "address": "서울특별시 구로구 남부순환로105길 42 가리봉의원 (가리봉동)",
  "name": "가리봉의원",
  "subject": "내과",
  "isPcr": false,
  "isRat": true,
  "category": "의원",
  "isClinic": false,
  "tel": "02-851-1666",
  "longitude": 126.8903558,
  "latitude": 37.4795541,
  "isContact": false,
  "status": "정보없음",
  "week": "정보없음",
  "sat": "정보없음",
  "sun": "정보없음"
  },
  {
  "address": "서울특별시 강동구 풍성로 178 (성내동)",
  "name": "강동김내과의원",
  "subject": "내과",
  "isPcr": false,
  "isRat": true,
  "category": "의원",
  "isClinic": false,
  "tel": "02-479-0075",
  "longitude": 127.1314184,
  "latitude": 37.5300546,
  "isContact": true,
  "status": "정보없음",
  "week": "정보없음",
  "sat": "정보없음",
  "sun": "정보없음"
  },
  {
  "address": "서울특별시 강남구 테헤란로 119 4층 (역삼동)",
  "name": "영이비인후과의원",
  "subject": "내과",
  "isPcr": true,
  "isRat": true,
  "category": "의원",
  "isClinic": false,
  "tel": "02-553-2085",
  "longitude": 127.0306682,
  "latitude": 37.4993258,
  "isContact": false,
  "status": "정보없음",
  "week": "정보없음",
  "sat": "정보없음",
  "sun": "정보없음"
  },
  {
  "address": "서울특별시 서초구 강남대로 437 5,8층 602호, 8층 일부호 (서초동, 대원빌딩)",
  "name": "김성근이비인후과의원",
  "subject": "이비인후과",
  "isPcr": false,
  "isRat": true,
  "category": "의원",
  "isClinic": false,
  "tel": "02-3478-1003",
  "longitude": 127.0255201,
  "latitude": 37.5013657,
  "isContact": true,
  "status": "정보없음",
  "week": "정보없음",
  "sat": "정보없음",
  "sun": "정보없음"
  },
  {
  "address": "서울특별시 성동구 독서당로 173 205호 (옥수동, 극동그린아파트상가)",
  "name": "박소아과의원",
  "subject": "내과",
  "isPcr": false,
  "isRat": true,
  "category": "의원",
  "isClinic": false,
  "tel": "02-2291-9550",
  "longitude": 127.0109203,
  "latitude": 37.5415617,
  "isContact": true,
  "status": "진료중",
  "week": "08:30 ~ 18:00",
  "sat": "08:30 ~ 12:30",
  "sun": "휴무"
  },
  {
  "address": "서울특별시 동대문구 답십리로 305 2층 (장안동)",
  "name": "수이비인후과의원",
  "subject": "내과",
  "isPcr": false,
  "isRat": true,
  "category": "의원",
  "isClinic": false,
  "tel": "02-2216-6122",
  "longitude": 127.0745086,
  "latitude": 37.5724068,
  "isContact": false,
  "status": "정보없음",
  "week": "정보없음",
  "sat": "정보없음",
  "sun": "정보없음"
  },
  {
  "address": "서울특별시 강남구 도산대로 513 양원빌딩 3층 (청담동)",
  "name": "오화경의원",
  "subject": "소아청소년과",
  "isPcr": false,
  "isRat": true,
  "category": "의원",
  "isClinic": false,
  "tel": "02-548-2711",
  "longitude": 127.0494875,
  "latitude": "37.5247950",
  "isContact": true,
  "status": "정보없음",
  "week": "정보없음",
  "sat": "정보없음",
  "sun": "정보없음"
  },
  {
  "address": "서울특별시 관악구 당곡길 28 (봉천동)",
  "name": "김성훈가정의학과의원",
  "subject": "내과",
  "isPcr": true,
  "isRat": true,
  "category": "의원",
  "isClinic": false,
  "tel": "02-889-4365",
  "longitude": 126.9291504,
  "latitude": "37.4905200",
  "isContact": true,
  "status": "진료중",
  "week": "09:00 ~ 19:00",
  "sat": "휴무",
  "sun": "09:00 ~ 13:00"
  },
  {
  "address": "서울특별시 서초구 신반포로 257 4층 (잠원동, 뉴타운)",
  "name": "반포키즈소아청소년과의원",
  "subject": "내과",
  "isPcr": false,
  "isRat": true,
  "category": "의원",
  "isClinic": false,
  "tel": "02-533-7075",
  "longitude": "127.0119360",
  "latitude": 37.5086203,
  "isContact": true,
  "status": "진료중",
  "week": "08:30 ~ 20:30",
  "sat": "08:30 ~ 16:00",
  "sun": "09:00 ~ 13:00"
  },
  {
  "address": "서울특별시 중랑구 동일로92길 57 메디포레 5층 (면목동)",
  "name": "사가정서울이비인후과의원",
  "subject": "소아청소년과",
  "isPcr": false,
  "isRat": true,
  "category": "의원",
  "isClinic": false,
  "tel": "02-433-7582",
  "longitude": 127.0831967,
  "latitude": 37.5834836,
  "isContact": false,
  "status": "정보없음",
  "week": "정보없음",
  "sat": "정보없음",
  "sun": "정보없음"
  },
  {
  "address": "서울특별시 성동구 금호로 105 래미안하이리버 상가동 B306호 (금호동2가)",
  "name": "아산키즈소아청소년과의원",
  "subject": "내과",
  "isPcr": false,
  "isRat": true,
  "category": "의원",
  "isClinic": false,
  "tel": "02-2236-3375",
  "longitude": 126.9181024,
  "latitude": 37.6110266,
  "isContact": true,
  "status": "정보없음",
  "week": "정보없음",
  "sat": "정보없음",
  "sun": "정보없음"
  },
  {
  "address": "서울특별시 노원구 월계로 370 희성프라자 201,202호 (월계동)",
  "name": "서울의원",
  "subject": "내과",
  "isPcr": true,
  "isRat": true,
  "category": "의원",
  "isClinic": false,
  "tel": "02-993-2161",
  "longitude": 127.0609491,
  "latitude": 37.6310464,
  "isContact": true,
  "status": "진료중",
  "week": "08:00 ~ 22:00",
  "sat": "08:00 ~ 18:00",
  "sun": "09:00 ~ 18:00"
  },
  {
  "address": "서울특별시 서대문구 통일로 205-1 2층 (영천동)",
  "name": "연세이비인후과의원",
  "subject": "이비인후과",
  "isPcr": false,
  "isRat": true,
  "category": "의원",
  "isClinic": false,
  "tel": "02-393-9752",
  "longitude": 126.9608067,
  "latitude": 37.5713502,
  "isContact": true,
  "status": "진료중",
  "week": "09:00 ~ 18:00",
  "sat": "09:00 ~ 13:00",
  "sun": "휴무"
  },
  {
  "address": "서울특별시 관악구 봉천로 281 2층 (봉천동)",
  "name": "아름드리가정의원",
  "subject": "내과",
  "isPcr": true,
  "isRat": true,
  "category": "의원",
  "isClinic": false,
  "tel": "02-858-2828",
  "longitude": 126.9324891,
  "latitude": 37.4877351,
  "isContact": true,
  "status": "정보없음",
  "week": "정보없음",
  "sat": "정보없음",
  "sun": "정보없음"
  },
  {
  "address": "서울특별시 성북구 종암로 80 (종암동)",
  "name": "김효석내과의원",
  "subject": "내과",
  "isPcr": false,
  "isRat": true,
  "category": "의원",
  "isClinic": false,
  "tel": "02-943-1412",
  "longitude": "127.0354600",
  "latitude": 37.5974334,
  "isContact": false,
  "status": "정보없음",
  "week": "정보없음",
  "sat": "정보없음",
  "sun": "정보없음"
  },
  {
  "address": "서울특별시 강동구 천호대로 1210 3층 (둔촌동)",
  "name": "노민관가정의학과의원",
  "subject": "가정의학과",
  "isPcr": false,
  "isRat": true,
  "category": "의원",
  "isClinic": false,
  "tel": "02-489-2410",
  "longitude": "127.1456740",
  "latitude": 37.5349344,
  "isContact": true,
  "status": "정보없음",
  "week": "정보없음",
  "sat": "정보없음",
  "sun": "정보없음"
  },
  {
  "address": "서울특별시 은평구 갈현로 81 (역촌동, 그린빌딩)",
  "name": "홍가정의학과의원",
  "subject": "가정의학과",
  "isPcr": false,
  "isRat": true,
  "category": "의원",
  "isClinic": false,
  "tel": "02-387-7565",
  "longitude": 126.9103195,
  "latitude": 37.6053183,
  "isContact": false,
  "status": "진료중",
  "week": "09:00 ~ 18:30",
  "sat": "09:00 ~ 13:00",
  "sun": "휴무"
  },
  {
  "address": "서울특별시 성동구 독서당로 295-1 (금호동3가)",
  "name": "안희정소아과의원",
  "subject": "소아청소년과",
  "isPcr": false,
  "isRat": true,
  "category": "의원",
  "isClinic": false,
  "tel": "02-2234-0448",
  "longitude": 127.0219595,
  "latitude": 37.5483837,
  "isContact": true,
  "status": "진료중",
  "week": "09:00 ~ 18:30",
  "sat": "09:00 ~ 14:00",
  "sun": "휴무"
  },
  {
  "address": "서울특별시 양천구 목동중앙북로 13-1 2층 (목동)",
  "name": "소생의원",
  "subject": "내과",
  "isPcr": true,
  "isRat": true,
  "category": "의원",
  "isClinic": false,
  "tel": "02-2652-7172",
  "longitude": "126.8651570",
  "latitude": 37.5485624,
  "isContact": true,
  "week": "정보없음",
  "sat": "휴무",
  "sun": "휴무"
  },
  {
  "address": "서울특별시 강동구 동남로73길 26 2층 204호 (명일동, 고덕복합빌딩)",
  "name": "명일건내과의원",
  "subject": "내과",
  "isPcr": false,
  "isRat": true,
  "category": "의원",
  "isClinic": false,
  "tel": "02-428-2407",
  "longitude": 127.1547967,
  "latitude": 37.5533037,
  "isContact": true,
  "status": "진료중",
  "week": "09:00 ~ 18:00",
  "sat": "09:00 ~ 13:00",
  "sun": "휴무"
  },
  {
  "address": "서울특별시 은평구 가좌로 322 (신사동)",
  "name": "신사중앙의원",
  "subject": "내과",
  "isPcr": true,
  "isRat": true,
  "category": "의원",
  "isClinic": false,
  "tel": "02-3151-0911",
  "longitude": 126.9096493,
  "latitude": 37.5963637,
  "isContact": true,
  "status": "정보없음",
  "week": "정보없음",
  "sat": "정보없음",
  "sun": "정보없음"
  },
  {
  "address": "서울특별시 강동구 양재대로 1488 (길동)",
  "name": "훈훈한내과의원",
  "subject": "내과",
  "isPcr": false,
  "isRat": true,
  "category": "의원",
  "isClinic": false,
  "tel": "02-484-7600",
  "longitude": 127.1406114,
  "latitude": 37.5386108,
  "isContact": true,
  "status": "진료중",
  "week": "08:30 ~ 18:00",
  "sat": "08:30 ~ 13:00",
  "sun": "휴무"
  },
  {
  "address": "서울특별시 서초구 반포대로 58 213-1호 (서초동, 서초아트자이상가)",
  "name": "변혜란소아청소년과의원",
  "subject": "내과",
  "isPcr": false,
  "isRat": true,
  "category": "의원",
  "isClinic": false,
  "tel": "02-583-2043",
  "longitude": 127.0113905,
  "latitude": 37.4856543,
  "isContact": true,
  "status": "진료중",
  "week": "09:30 ~ 18:00",
  "sat": "09:30 ~ 14:00",
  "sun": "휴무"
  },
  {
  "address": "서울특별시 강서구 양천로 564 1층 116-118호 (등촌동, 등촌두산위브센티움)",
  "name": "미래아이소아청소년과의원",
  "subject": "소아청소년과",
  "isPcr": false,
  "isRat": true,
  "category": "의원",
  "isClinic": false,
  "tel": "02-3663-7799",
  "longitude": 126.8613201,
  "latitude": 37.5570639,
  "isContact": false,
  "status": "정보없음",
  "week": "정보없음",
  "sat": "정보없음",
  "sun": "정보없음"
  },
  {
  "address": "서울특별시 송파구 올림픽로 119 잠실파인애플상가 3A층 13호 (잠실동)",
  "name": "맘앤맘소아청소년과의원",
  "subject": "내과",
  "isPcr": true,
  "isRat": true,
  "category": "의원",
  "isClinic": false,
  "tel": "02-418-8285",
  "longitude": 127.0842018,
  "latitude": 37.5120894,
  "isContact": false,
  "status": "정보없음",
  "week": "정보없음",
  "sat": "정보없음",
  "sun": "정보없음"
  },
  {
  "address": "서울특별시 강동구 아리수로93길 27 304호 (강일동)",
  "name": "강일코모키이비인후과의원",
  "subject": "내과",
  "isPcr": true,
  "isRat": true,
  "category": "의원",
  "isClinic": false,
  "tel": "02-429-2687",
  "longitude": 127.1738307,
  "latitude": 37.5656316,
  "isContact": true,
  "status": "진료중",
  "week": "09:00 ~ 18:30",
  "sat": "09:00 ~ 13:00",
  "sun": "휴무"
  },
  {
  "address": "서울특별시 동작구 서달로 150 2층 (흑석동, 해가든상가)",
  "name": "퀴앤코플러스이비인후과의원",
  "subject": "내과",
  "isPcr": true,
  "isRat": true,
  "category": "의원",
  "isClinic": false,
  "tel": "02-813-7755",
  "longitude": 126.9622064,
  "latitude": 37.5066681,
  "isContact": true,
  "status": "정보없음",
  "week": "정보없음",
  "sat": "정보없음",
  "sun": "정보없음"
  },
  {
  "address": "서울특별시 광진구 천호대로 557 풍국빌딩 101호 (중곡동)",
  "name": "코즈이비인후과의원",
  "subject": "소아청소년과",
  "isPcr": false,
  "isRat": true,
  "category": "의원",
  "isClinic": false,
  "tel": "02-446-5571",
  "longitude": 127.0803089,
  "latitude": 37.5572501,
  "isContact": false,
  "status": "정보없음",
  "week": "정보없음",
  "sat": "정보없음",
  "sun": "정보없음"
  },
  {
  "address": "서울특별시 송파구 마천로 41 수기빌딩 3층 (방이동)",
  "name": "송파성모이비인후과의원",
  "subject": "내과",
  "isPcr": false,
  "isRat": true,
  "category": "의원",
  "isClinic": false,
  "tel": "02-420-4700",
  "longitude": 127.1255268,
  "latitude": 37.5090498,
  "isContact": false,
  "status": "정보없음",
  "week": "정보없음",
  "sat": "정보없음",
  "sun": "정보없음"
  },
  {
  "address": "서울특별시 관악구 신림로 318 6층 (신림동, 청암두산위브센티움)",
  "name": "수이비인후과의원",
  "subject": "내과",
  "isPcr": false,
  "isRat": true,
  "category": "의원",
  "isClinic": false,
  "tel": "02-878-4218",
  "longitude": 126.9302485,
  "latitude": 37.4825924,
  "isContact": true,
  "status": "정보없음",
  "week": "정보없음",
  "sat": "정보없음",
  "sun": "정보없음"
  },
  {
  "address": "서울특별시 강서구 등촌로5길 2 5층 502호 (화곡동)",
  "name": "고운성모이비인후과의원",
  "subject": "소아청소년과",
  "isPcr": false,
  "isRat": true,
  "category": "의원",
  "isClinic": false,
  "tel": "02-2655-0288",
  "longitude": 126.8633118,
  "latitude": 37.5334735,
  "isContact": false,
  "status": "정보없음",
  "week": "정보없음",
  "sat": "정보없음",
  "sun": "정보없음"
  },
  {
  "address": "서울특별시 금천구 가산디지털1로 171 가산 에스케이 브이원 센터 118호 (가산동)",
  "name": "가산디지털내과의원",
  "subject": "내과",
  "isPcr": false,
  "isRat": true,
  "category": "의원",
  "isClinic": false,
  "tel": "02-6269-8501",
  "longitude": 126.8806788,
  "latitude": 37.4807624,
  "isContact": false,
  "status": "진료중",
  "week": "08:30 ~ 19:00",
  "sat": "휴무",
  "sun": "휴무"
  },
  {
  "address": "서울특별시 강남구 삼성로 712 지하1층 (청담동)",
  "name": "청담드림소아청소년과의원",
  "subject": "소아청소년과",
  "isPcr": false,
  "isRat": true,
  "category": "의원",
  "isClinic": false,
  "tel": "02-517-3123",
  "longitude": 127.0502063,
  "latitude": 37.5197323,
  "isContact": false,
  "status": "정보없음",
  "week": "정보없음",
  "sat": "정보없음",
  "sun": "정보없음"
  },
  {
  "address": "서울특별시 중구 세종대로11길 30 에이치케이스퀘어빌딩 3층, 2층일부층 (서소문동)",
  "name": "시청역성모정형외과의원",
  "subject": "내과",
  "isPcr": false,
  "isRat": true,
  "category": "의원",
  "isClinic": false,
  "tel": "02-776-6600",
  "longitude": 126.9742207,
  "latitude": 37.5623476,
  "isContact": false,
  "status": "진료중",
  "week": "09:00 ~ 20:00",
  "sat": "09:00 ~ 13:00",
  "sun": "휴무"
  },
  {
  "address": "서울특별시 종로구 종로 223 1층 (종로5가, 우교빌딩)",
  "name": "종로광장정형외과의원",
  "subject": "정형외과",
  "isPcr": false,
  "isRat": true,
  "category": "의원",
  "isClinic": false,
  "tel": "02-3675-7650",
  "longitude": "127.0025000",
  "latitude": 37.5713591,
  "isContact": true,
  "status": "정보없음",
  "week": "정보없음",
  "sat": "정보없음",
  "sun": "정보없음"
  },
  {
  "address": "서울특별시 종로구 대학로 128 4층 (동숭동)",
  "name": "마로니에이비인후과의원",
  "subject": "내과",
  "isPcr": false,
  "isRat": true,
  "category": "의원",
  "isClinic": false,
  "tel": "02-766-0077",
  "longitude": 127.0021755,
  "latitude": 37.5827062,
  "isContact": false,
  "status": "정보없음",
  "week": "정보없음",
  "sat": "정보없음",
  "sun": "정보없음"
  },
  {
  "address": "서울특별시 송파구 백제고분로 386 2층 (송파동)",
  "name": "보아스이비인후과의원",
  "subject": "내과",
  "isPcr": true,
  "isRat": true,
  "category": "의원",
  "isClinic": false,
  "tel": "02-420-1530",
  "longitude": 127.1089568,
  "latitude": "37.5058890",
  "isContact": true,
  "status": "진료중",
  "week": "09:00 ~ 18:30",
  "sat": "09:00 ~ 14:00",
  "sun": "휴무"
  },
  {
  "address": "서울특별시 강동구 양재대로 1473 희헌타워 5층 (길동)",
  "name": "류마변세진내과의원",
  "subject": "내과",
  "isPcr": true,
  "isRat": true,
  "category": "의원",
  "isClinic": false,
  "tel": "02-6952-8288",
  "longitude": 127.1395889,
  "latitude": 37.5375122,
  "isContact": false,
  "status": "정보없음",
  "week": "정보없음",
  "sat": "정보없음",
  "sun": "정보없음"
  },
  {
  "address": "서울특별시 양천구 신목로 34 현승빌딩 3,5층 (신정동)",
  "name": "힘찬나아라정형외과의원",
  "subject": "내과",
  "isPcr": false,
  "isRat": true,
  "category": "의원",
  "isClinic": false,
  "tel": "02-2038-7724",
  "longitude": 126.8739724,
  "latitude": 37.5186593,
  "isContact": false,
  "status": "정보없음",
  "week": "정보없음",
  "sat": "정보없음",
  "sun": "정보없음"
  },
  {
  "address": "서울특별시 중구 을지로 164 베스트웨스턴호텔국도 3층 (을지로4가)",
  "name": "을지로참내과의원",
  "subject": "내과",
  "isPcr": false,
  "isRat": true,
  "category": "의원",
  "isClinic": false,
  "tel": "02-6273-7575",
  "longitude": 126.9962072,
  "latitude": 37.5662854,
  "isContact": false,
  "status": "정보없음",
  "week": "정보없음",
  "sat": "정보없음",
  "sun": "정보없음"
  },
  {
  "address": "서울특별시 동대문구 고산자로 406 2층 (용두동)",
  "name": "미래이비인후과의원",
  "subject": "소아청소년과",
  "isPcr": false,
  "isRat": true,
  "category": "의원",
  "isClinic": false,
  "tel": "02-960-0075",
  "longitude": "127.0386220",
  "latitude": 37.5758261,
  "isContact": false,
  "status": "정보없음",
  "week": "정보없음",
  "sat": "정보없음",
  "sun": "정보없음"
  },
  {
  "address": "서울특별시 광진구 아차산로 241 4층 401호 (화양동)",
  "name": "연세어울림이비인후과의원",
  "subject": "내과",
  "isPcr": false,
  "isRat": true,
  "category": "의원",
  "isClinic": false,
  "tel": "02-465-9700",
  "longitude": 127.0701725,
  "latitude": 37.5405171,
  "isContact": true,
  "status": "진료중",
  "week": "09:00 ~ 20:00",
  "sat": "09:00 ~ 15:00",
  "sun": "휴무"
  },
  {
  "address": "서울특별시 동작구 남부순환로 2057 3층 (사당동)",
  "name": "루카이비인후과의원",
  "subject": "소아청소년과",
  "isPcr": false,
  "isRat": true,
  "category": "의원",
  "isClinic": false,
  "tel": "02-587-5075",
  "longitude": 126.9773807,
  "latitude": 37.4769407,
  "isContact": false,
  "status": "정보없음",
  "week": "정보없음",
  "sat": "정보없음",
  "sun": "정보없음"
  },
  {
  "address": "서울특별시 성북구 동소문로 305 2~3층 (길음동)",
  "name": "이인숙산부인과 제일검진의원",
  "subject": "내과",
  "isPcr": false,
  "isRat": true,
  "category": "의원",
  "isClinic": false,
  "tel": "02-389-2822",
  "longitude": "127.0282270",
  "latitude": 37.6073732,
  "isContact": false,
  "status": "정보없음",
  "week": "정보없음",
  "sat": "정보없음",
  "sun": "정보없음"
  },
  {
  "address": "서울특별시 중구 무교로 32 효령빌딩 402호 (무교동)",
  "name": "미래이비인후과의원",
  "subject": "내과",
  "isPcr": false,
  "isRat": true,
  "category": "의원",
  "isClinic": false,
  "tel": "778-9275",
  "longitude": 126.9795793,
  "latitude": 37.5687701,
  "isContact": true,
  "status": "진료중",
  "week": "09:00 ~ 19:00",
  "sat": "09:00 ~ 12:00",
  "sun": "휴무"
  },
  {
  "address": "서울특별시 중구 퇴계로 213 일흥빌딩 (충무로4가)",
  "name": "대한내과의원",
  "subject": "내과",
  "isPcr": false,
  "isRat": true,
  "category": "의원",
  "isClinic": false,
  "tel": "02-2268-9000",
  "longitude": 126.9955133,
  "latitude": 37.5619014,
  "isContact": false,
  "status": "정보없음",
  "week": "정보없음",
  "sat": "정보없음",
  "sun": "정보없음"
  },
  {
  "address": "서울특별시 강동구 천호대로 1089 4층 2호 (천호동, 강동헤르셔)",
  "name": "열린성모이비인후과의원",
  "subject": "이비인후과",
  "isPcr": true,
  "isRat": true,
  "category": "의원",
  "isClinic": false,
  "tel": "02-471-6045",
  "longitude": 127.1334297,
  "latitude": 37.5365922,
  "isContact": false,
  "status": "정보없음",
  "week": "정보없음",
  "sat": "정보없음",
  "sun": "정보없음"
  },
  {
  "address": "서울특별시 양천구 곰달래로5길 17 신월프라자 103,104,105,109호 (신월동)",
  "name": "미래365연합의원",
  "subject": "내과",
  "isPcr": false,
  "isRat": true,
  "category": "의원",
  "isClinic": false,
  "tel": "02-2699-8110",
  "longitude": "126.8335020",
  "latitude": 37.5310151,
  "isContact": true,
  "status": "진료중",
  "week": "09:00 ~ 20:10",
  "sat": "09:00 ~ 18:00",
  "sun": "09:00 ~ 18:00"
  },
  {
  "address": "서울특별시 노원구 동일로 1405 국민은행노원지점 5층 (상계동)",
  "name": "하나이비인후과의원",
  "subject": "이비인후과",
  "isPcr": false,
  "isRat": true,
  "category": "의원",
  "isClinic": false,
  "tel": "02-952-8883",
  "longitude": 127.0601763,
  "latitude": 37.6538336,
  "isContact": false,
  "status": "정보없음",
  "week": "정보없음",
  "sat": "정보없음",
  "sun": "정보없음"
  },
  {
  "address": "서울특별시 강남구 강남대로 372 (역삼동, FINE TOWER)",
  "name": "강남삼성드림이비인후과의원",
  "subject": "성형외과",
  "isPcr": false,
  "isRat": true,
  "category": "의원",
  "isClinic": false,
  "tel": "02-539-0365",
  "longitude": "126.9802900",
  "latitude": 37.5700818,
  "isContact": true,
  "status": "정보없음",
  "week": "정보없음",
  "sat": "정보없음",
  "sun": "정보없음"
  },
  {
  "address": "서울특별시 강남구 선릉로 641 (논현동, 204호)",
  "name": "다나아의원",
  "subject": "내과",
  "isPcr": true,
  "isRat": true,
  "category": "의원",
  "isClinic": false,
  "tel": "02-547-7100",
  "longitude": 127.0423077,
  "latitude": 37.5137633,
  "isContact": false,
  "status": "정보없음",
  "week": "정보없음",
  "sat": "정보없음",
  "sun": "정보없음"
  },
  {
  "address": "서울특별시 서초구 잠원로 24 415호 (반포동, 반포자이프라자상가)",
  "name": "연세숲이비인후과의원",
  "subject": "내과",
  "isPcr": false,
  "isRat": true,
  "category": "의원",
  "isClinic": false,
  "tel": "02-535-5082",
  "longitude": 127.0098751,
  "latitude": 37.5071118,
  "isContact": false,
  "status": "정보없음",
  "week": "정보없음",
  "sat": "정보없음",
  "sun": "정보없음"
  },
  {
  "address": "서울특별시 광진구 용마산로 57 2층 (중곡동)",
  "name": "이우창연세마취통증의학과의원",
  "subject": "내과",
  "isPcr": false,
  "isRat": true,
  "category": "의원",
  "isClinic": false,
  "tel": "02-456-8876",
  "longitude": 127.0875641,
  "latitude": 37.5587489,
  "isContact": false,
  "status": "정보없음",
  "week": "정보없음",
  "sat": "정보없음",
  "sun": "정보없음"
  },
  {
  "address": "서울특별시 강북구 도봉로 142 2층 (미아동)",
  "name": "새봄마취통증의학과의원",
  "subject": "내과",
  "isPcr": false,
  "isRat": true,
  "category": "의원",
  "isClinic": false,
  "tel": "02-988-5267",
  "longitude": 127.0283919,
  "latitude": 37.6215387,
  "isContact": true,
  "status": "정보없음",
  "week": "정보없음",
  "sat": "정보없음",
  "sun": "정보없음"
  },
  {
  "address": "서울특별시 구로구 구로중앙로 68 306,307호 (구로동, 신안타워)",
  "name": "열린성모이비인후과의원",
  "subject": "이비인후과",
  "isPcr": false,
  "isRat": true,
  "category": "의원",
  "isClinic": false,
  "tel": "02-866-7778",
  "longitude": 126.8887946,
  "latitude": 37.4958015,
  "isContact": true,
  "status": "정보없음",
  "week": "정보없음",
  "sat": "정보없음",
  "sun": "정보없음"
  },
  {
  "address": "서울특별시 동작구 만양로 26 206호 (상도동, 건영아파트상가)",
  "name": "서울가정의원",
  "subject": "내과",
  "isPcr": false,
  "isRat": true,
  "category": "의원",
  "isClinic": false,
  "tel": "02-825-6331",
  "longitude": 126.9499848,
  "latitude": 37.5077626,
  "isContact": false,
  "status": "정보없음",
  "week": "정보없음",
  "sat": "정보없음",
  "sun": "정보없음"
  },
  {
  "address": "서울특별시 양천구 신목로 86 2층 (신정동)",
  "name": "김&안소아과의원",
  "subject": "소아청소년과",
  "isPcr": false,
  "isRat": true,
  "category": "의원",
  "isClinic": false,
  "tel": "02-2649-0478",
  "longitude": 126.8747807,
  "latitude": 37.5223171,
  "isContact": true,
  "status": "정보없음",
  "week": "정보없음",
  "sat": "정보없음",
  "sun": "정보없음"
  },
  {
  "address": "서울특별시 중랑구 중랑역로15길 6 (중화동, 신누가의원)",
  "name": "신누가의원",
  "subject": "내과",
  "isPcr": true,
  "isRat": true,
  "category": "의원",
  "isClinic": false,
  "tel": "02-434-5281",
  "longitude": 127.0756444,
  "latitude": 37.5973318,
  "isContact": true,
  "status": "진료중",
  "week": "08:30 ~ 19:00",
  "sat": "08:30 ~ 15:00",
  "sun": "09:00 ~ 12:00"
  },
  {
  "address": "서울특별시 송파구 송파대로 380 (송파동, 4층)",
  "name": "우리들내과의원",
  "subject": "내과",
  "isPcr": false,
  "isRat": true,
  "category": "의원",
  "isClinic": false,
  "tel": "02-414-2475",
  "longitude": 127.1108521,
  "latitude": 37.5016805,
  "isContact": true,
  "status": "정보없음",
  "week": "정보없음",
  "sat": "정보없음",
  "sun": "정보없음"
  },
  {
  "address": "서울특별시 강북구 삼양로 247 3층 (미아동, 롯데마트 삼양점)",
  "name": "미래소아청소년과의원",
  "subject": "내과",
  "isPcr": false,
  "isRat": true,
  "category": "의원",
  "isClinic": false,
  "tel": "02-987-7015",
  "longitude": "127.0177470",
  "latitude": 37.6255182,
  "isContact": true,
  "status": "진료중",
  "week": "10:00 ~ 21:00",
  "sat": "10:00 ~ 18:00",
  "sun": "10:00 ~ 18:00"
  },
  {
  "address": "서울특별시 서대문구 응암로 54 3층 (북가좌동, 서부프라자)",
  "name": "김이비인후과의원",
  "subject": "이비인후과",
  "isPcr": false,
  "isRat": true,
  "category": "의원",
  "isClinic": false,
  "tel": "02-306-1851",
  "longitude": 126.9101192,
  "latitude": 37.5778864,
  "isContact": true,
  "status": "정보없음",
  "week": "정보없음",
  "sat": "정보없음",
  "sun": "정보없음"
  },
  {
  "address": "서울특별시 관악구 관악로 205 2,7층 (봉천동)",
  "name": "이성욱이비인후과의원",
  "subject": "소아청소년과",
  "isPcr": true,
  "isRat": true,
  "category": "의원",
  "isClinic": false,
  "tel": "02-886-8272",
  "longitude": 126.9539617,
  "latitude": 37.4833948,
  "isContact": true,
  "status": "정보없음",
  "week": "정보없음",
  "sat": "정보없음",
  "sun": "정보없음"
  },
  {
  "address": "서울특별시 강서구 강서로 242 4층 409,410호 (화곡동, 강서힐스테이트)",
  "name": "이솜이비인후과의원",
  "subject": "내과",
  "isPcr": false,
  "isRat": true,
  "category": "의원",
  "isClinic": false,
  "tel": "02-2065-1006",
  "longitude": 126.8367634,
  "latitude": 37.5473848,
  "isContact": false,
  "status": "정보없음",
  "week": "정보없음",
  "sat": "정보없음",
  "sun": "정보없음"
  },
  {
  "address": "서울특별시 강남구 개포로 231 2층 (개포동, 반석빌딩)",
  "name": "조엔소아청소년과의원",
  "subject": "내과",
  "isPcr": false,
  "isRat": true,
  "category": "의원",
  "isClinic": false,
  "tel": "02-2057-7582",
  "longitude": 127.0479597,
  "latitude": 37.4790142,
  "isContact": false,
  "status": "진료중",
  "week": "09:00 ~ 19:00",
  "sat": "09:00 ~ 13:00",
  "sun": "휴무"
  },
  {
  "address": "서울특별시 동작구 장승배기로 168 3층 301(일부)호 (노량진동)",
  "name": "기쁨준내과의원",
  "subject": "내과",
  "isPcr": false,
  "isRat": true,
  "category": "의원",
  "isClinic": false,
  "tel": "02-826-7575",
  "longitude": 126.9405533,
  "latitude": 37.5126136,
  "isContact": true,
  "status": "정보없음",
  "week": "정보없음",
  "sat": "정보없음",
  "sun": "정보없음"
  },
  {
  "address": "서울특별시 은평구 은평로 121 3층 (응암동)",
  "name": "참조은이비인후과의원",
  "subject": "소아청소년과",
  "isPcr": true,
  "isRat": true,
  "category": "의원",
  "isClinic": false,
  "tel": "02-382-3700",
  "longitude": 126.9210962,
  "latitude": 37.6004544,
  "isContact": false,
  "week": "정보없음",
  "sat": "휴무",
  "sun": "휴무"
  },
  {
  "address": "서울특별시 성북구 정릉로36길 28-5 열린산부인과 (정릉동)",
  "name": "열린산부인과의원",
  "subject": "마취통증의학과",
  "isPcr": false,
  "isRat": true,
  "category": "의원",
  "isClinic": false,
  "tel": "02-919-1446",
  "longitude": "127.0169110",
  "latitude": 37.6024831,
  "isContact": false,
  "status": "진료중",
  "week": "09:00 ~ 18:00",
  "sat": "09:00 ~ 13:00",
  "sun": "휴무"
  },
  {
  "address": "서울특별시 구로구 개봉로 23 고려크리닉센터 3층 (개봉동)",
  "name": "고려가정의학과의원",
  "subject": "내과",
  "isPcr": false,
  "isRat": true,
  "category": "의원",
  "isClinic": false,
  "tel": "02-2616-7272",
  "longitude": 126.8560445,
  "latitude": 37.4877768,
  "isContact": false,
  "status": "정보없음",
  "week": "정보없음",
  "sat": "정보없음",
  "sun": "정보없음"
  },
  {
  "address": "서울특별시 송파구 송파대로32길 15 상가동 201~202호 (가락동, 가락금호아파트)",
  "name": "연세후이비인후과의원",
  "subject": "내과",
  "isPcr": false,
  "isRat": true,
  "category": "의원",
  "isClinic": false,
  "tel": "02-407-7498",
  "longitude": 127.1170717,
  "latitude": "37.4950450",
  "isContact": true,
  "status": "진료중",
  "week": "09:00 ~ 18:30",
  "sat": "09:00 ~ 13:00",
  "sun": "휴무"
  },
  {
  "address": "서울특별시 노원구 동일로197길 21 3층 (공릉동, 우성빌딩)",
  "name": "동아의원",
  "subject": "내과",
  "isPcr": false,
  "isRat": true,
  "category": "의원",
  "isClinic": false,
  "tel": "02-962-9240",
  "longitude": 127.0702522,
  "latitude": "37.6284120",
  "isContact": true,
  "status": "정보없음",
  "week": "정보없음",
  "sat": "정보없음",
  "sun": "정보없음"
  },
  {
  "address": "서울특별시 구로구 경인로67길 23 201호일부,202호 (신도림동, 신도림2차푸르지오)",
  "name": "마디튼튼류마내과의원",
  "subject": "내과",
  "isPcr": false,
  "isRat": true,
  "category": "의원",
  "isClinic": false,
  "tel": "02-2068-6641",
  "longitude": 126.8894776,
  "latitude": 37.5105879,
  "isContact": true,
  "status": "진료중",
  "week": "09:00 ~ 20:00",
  "sat": "09:00 ~ 13:00",
  "sun": "휴무"
  },
  {
  "address": "서울특별시 동대문구 전농로 36 답십리포레스트스퀘어 4층 402호 (답십리동)",
  "name": "다나성모소아청소년과의원",
  "subject": "내과",
  "isPcr": false,
  "isRat": true,
  "category": "의원",
  "isClinic": false,
  "tel": "02-3394-9518",
  "longitude": 127.0574429,
  "latitude": 37.5680203,
  "isContact": true,
  "status": "정보없음",
  "week": "정보없음",
  "sat": "정보없음",
  "sun": "정보없음"
  },
  {
  "address": "서울특별시 중랑구 중랑역로 51 4층 (중화동)",
  "name": "왕소아과의원",
  "subject": "내과",
  "isPcr": false,
  "isRat": true,
  "category": "의원",
  "isClinic": false,
  "tel": "02-493-3866",
  "longitude": 127.0769284,
  "latitude": 37.5983436,
  "isContact": true,
  "status": "정보없음",
  "week": "정보없음",
  "sat": "정보없음",
  "sun": "정보없음"
  },
  {
  "address": "서울특별시 중랑구 사가정로 404-6 4층 (면목동)",
  "name": "참이비인후과의원",
  "subject": "이비인후과",
  "isPcr": false,
  "isRat": true,
  "category": "의원",
  "isClinic": false,
  "tel": "02-493-9644",
  "longitude": 127.0893153,
  "latitude": 37.5803408,
  "isContact": true,
  "status": "정보없음",
  "week": "정보없음",
  "sat": "정보없음",
  "sun": "정보없음"
  },
  {
  "address": "서울특별시 동대문구 사가정로 148 (전농동)",
  "name": "튼튼소아과의원",
  "subject": "내과",
  "isPcr": false,
  "isRat": true,
  "category": "의원",
  "isClinic": false,
  "tel": "02-2244-0075",
  "longitude": 127.0605491,
  "latitude": 37.5769111,
  "isContact": true,
  "status": "정보없음",
  "week": "정보없음",
  "sat": "정보없음",
  "sun": "정보없음"
  },