{"createAt":"2022-02-22T15:10:22.370Z","length":10,"data":[{"address":"서울특별시 관악구 난곡로 214 5층 (신림동, 금정빌딩)","name":"성모베스트이비인후과의원","subject":"내과","isPcr":false,"isRat":true,"category":"의원","isClinic":false,"tel":"02-863-1175","longitude":"126.9181420","latitude":37.4739107,"isContact":true,"status":"진료중","week":"09:00 ~ 19:00","sat":"09:00 ~ 14:00","sun":"휴무"},{"address":"서울특별시 구로구 도림로 67 (구로동)","name":"이레소아청소년과의원","subject":"내과","isPcr":true,"isRat":true,"category":"의원","isClinic":false,"tel":"02-830-0107","longitude":126.8910281,"latitude":37.4895188,"isContact":false,"status":"정보없음","week":"정보없음","sat":"정보없음","sun":"정보없음"},{"address":"서울특별시 강남구 밤고개로21길 8 (율현동, 세곡프라자 1동 202호)","name":"우리소아청소년과의원","subject":"내과","isPcr":true,"isRat":true,"category":"의원","isClinic":false,"tel":"02-445-1275","longitude":127.1078517,"latitude":37.4735687,"isContact":false,"status":"정보없음","week":"정보없음","sat":"정보없음","sun":"정보없음"},{"address":"서울특별시 강북구 도봉로 190 (미아동, 비전빌딩)","name":"이윤식이비인후과의원","subject":"이비인후과","isPcr":false,"isRat":true,"category":"의원","isClinic":false,"tel":"02-945-2323","longitude":127.0270001,"latitude":37.6258982,"isContact":true,"status":"진료중","week":"09:00 ~ 18:30","sat":"09:00 ~ 14:00","sun":"휴무"},{"address":"서울특별시 서초구 동작대로 118 3층 301호~303호 (방배동, 방배동예다인프라자빌딩)","name":"지에프소아청소년과의원","subject":"내과","isPcr":false,"isRat":true,"category":"의원","isClinic":false,"tel":"02-522-5119","longitude":126.9828023,"latitude":37.4870229,"isContact":false,"status":"진료중","week":"09:00 ~ 18:00","sat":"09:00 ~ 16:00","sun":"10:00 ~ 16:00"},{"address":"서울특별시 강남구 남부순환로 2936 203,204호 (대치동, 윈플러스상가)","name":"코코이비인후과의원","subject":"이비인후과","isPcr":true,"isRat":true,"category":"의원","isClinic":false,"tel":"02-555-9001","longitude":127.0618627,"latitude":37.4933467,"isContact":false,"status":"진료중","week":"09:30 ~ 18:00","sat":"09:30 ~ 13:00","sun":"휴무"},{"address":"서울특별시 강서구 공항대로 164 류마타워 3층 305호 (마곡동)","name":"마곡코엔이비인후과의원","subject":"내과","isPcr":false,"isRat":true,"category":"의원","isClinic":false,"tel":"02-2664-5075","longitude":126.8255148,"latitude":37.5593259,"isContact":false,"status":"진료중","week":"09:00 ~ 19:00","sat":"09:00 ~ 13:00","sun":"휴무"},{"address":"서울특별시 노원구 동일로 1341 3층 1,2호 (상계동, 장우빌딩)","name":"노충희비뇨기과의원","subject":"내과","isPcr":true,"isRat":true,"category":"의원","isClinic":false,"tel":"02-933-6133","longitude":127.0621075,"latitude":37.6483272,"isContact":true,"status":"정보없음","week":"정보없음","sat":"정보없음","sun":"정보없음"},{"address":"서울특별시 구로구 새말로 15 2~9층 (구로동, 삼전솔하임)","name":"의료법인 우리아이들 의료재단 우리아이들병원","subject":"내과","isPcr":true,"isRat":true,"category":"병원","isClinic":true,"tel":"02-858-0100","longitude":126.8824677,"latitude":37.5021356,"isContact":true,"status":"진료중","week":"09:00 ~ 22:00","sat":"09:00 ~ 17:00","sun":"09:00 ~ 17:00"},{"address":"서울특별시 송파구 가락로 277 (방이동)","name":"방이내과의원","subject":"내과","isPcr":false,"isRat":true,"category":"의원","isClinic":false,"tel":"02-423-3541","longitude":127.1195397,"latitude":37.5126353,"isContact":false,"status":"정보없음","week":"정보없음","sat":"정보없음","sun":"정보없음"}]}